[{"latitude":"5.323497","longitude":"-4.026252","name":"Abidjan, Côte d'Ivoire","id":"3316"},{"latitude":"24.443759","longitude":"54.418960","name":"Abu Dhabi, United Arab Emirates","id":"3858"},{"latitude":"31.071894","longitude":"29.702539","name":"Abu Talat, Egypt","id":"9485"},{"latitude":"5.558302","longitude":"-0.201065","name":"Accra, Ghana","id":"4181"},{"latitude":"12.800704","longitude":"45.033503","name":"Aden, Yemen","id":"5969"},{"latitude":"36.383558","longitude":"140.612324","name":"Ajigaura, Japan","id":"5884"},{"latitude":"25.538577","longitude":"51.451930","name":"Al Daayen, Qatar","id":"10232"},{"latitude":"16.210339","longitude":"52.182344","name":"Al Ghaydah, Yemen","id":"7679"},{"latitude":"26.241585","longitude":"50.656264","name":"Al Hidd, Bahrain","id":"10233"},{"latitude":"14.685565","longitude":"43.008501","name":"Al Hudaydah, Yemen","id":"7681"},{"latitude":"26.286157","longitude":"50.214262","name":"Al Khobar, Saudi Arabia","id":"7729"},{"latitude":"29.369937","longitude":"47.976541","name":"Al Safat, Kuwait","id":"4294"},{"latitude":"23.684634","longitude":"58.176135","name":"Al Seeb, Oman","id":"7646"},{"latitude":"29.923369","longitude":"48.531780","name":"Al-Faw, Iraq","id":"9596"},{"latitude":"-33.913966","longitude":"151.196198","name":"Alexandria, Australia","id":"6097"},{"latitude":"31.191856","longitude":"29.889861","name":"Alexandria, Egypt","id":"6044"},{"latitude":"36.765328","longitude":"3.031789","name":"Algiers, Algeria","id":"4176"},{"latitude":"52.634666","longitude":"4.746194","name":"Alkmaar, Netherlands","id":"3086"},{"latitude":"27.999558","longitude":"-15.699976","name":"Alta Vista,Canary Islands, Spain","id":"5720"},{"latitude":"61.217431","longitude":"-149.858376","name":"Anchorage, Alaska, United States","id":"4067"},{"latitude":"-6.129325","longitude":"106.833389","name":"Ancol, Indonesia","id":"5860"},{"latitude":"53.395396","longitude":"-4.537170","name":"Anglesey,United Kingdom","id":"10314"},{"latitude":"57.501816","longitude":"-134.582274","name":"Angoon, Alaska, United States","id":"8553"},{"latitude":"36.902356","longitude":"7.755488","name":"Annaba, Algeria","id":"4196"},{"latitude":"-13.833706","longitude":"-171.766679","name":"Apia, Samoa","id":"5705"},{"latitude":"29.531761","longitude":"35.006975","name":"Aqaba, Jordan","id":"4363"},{"latitude":"-18.473782","longitude":"-70.306750","name":"Arica, Chile","id":"5800"},{"latitude":"35.470741","longitude":"-6.035744","name":"Asilah, Morocco","id":"5910"},{"latitude":"37.976093","longitude":"23.736254","name":"Athens, Greece","id":"3211"},{"latitude":"-36.884410","longitude":"174.770419","name":"Auckland, New Zealand","id":"3319"},{"latitude":"58.833246","longitude":"-2.900114","name":"Ayre of Caira, United Kingdom","id":"8682"},{"latitude":"12.518115","longitude":"-69.964030","name":"Baby Beach, Aruba","id":"5776"},{"latitude":"35.934126","longitude":"14.458812","name":"Bahar ic-Caghaq, Malta","id":"9028"},{"latitude":"-20.473988","longitude":"57.485374","name":"Baie Jacotet, Mauritius","id":"5906"},{"latitude":"16.028941","longitude":"-61.713946","name":"Baillif, Guadeloupe","id":"8834"},{"latitude":"43.414344","longitude":"28.167425","name":"Balchik, Bulgaria","id":"9594"},{"latitude":"18.409411","longitude":"121.514047","name":"Ballesteros, Philippines","id":"8541"},{"latitude":"52.401467","longitude":"-6.364862","name":"Ballinesker, Ireland","id":"8407"},{"latitude":"35.934126","longitude":"14.380009","name":"Balluta Bay, Malta","id":"6170"},{"latitude":"52.184029","longitude":"-6.558809","name":"Ballygrangans, Ireland","id":"8406"},{"latitude":"27.187329","longitude":"56.274409","name":"Bandar Abbas, Iran","id":"8848"},{"latitude":"43.118504","longitude":"-124.408279","name":"Bandon, Oregon, United States","id":"3554"},{"latitude":"57.666852","longitude":"-2.523663","name":"Banff, United Kingdom","id":"8680"},{"latitude":"13.455928","longitude":"-16.581371","name":"Banjul, Gambia","id":"4348"},{"latitude":"41.385327","longitude":"2.168564","name":"Barcelona, Spain","id":"3036"},{"latitude":"41.125526","longitude":"16.866689","name":"Bari, Italy","id":"3160"},{"latitude":"23.679414","longitude":"58.004373","name":"Barka, Oman","id":"8947"},{"latitude":"10.940437","longitude":"-74.779783","name":"Barranquilla, Colombia","id":"4315"},{"latitude":"55.770346","longitude":"12.955420","name":"Barsebäck, Sweden","id":"8403"},{"latitude":"17.298431","longitude":"-62.731215","name":"Basseterre, Saint Kitts and Nevis","id":"4356"},{"latitude":"1.860054","longitude":"9.768242","name":"Bata, Equatorial Guinea","id":"9434"},{"latitude":"1.134660","longitude":"103.962529","name":"Batam, Indonesia","id":"5862"},{"latitude":"13.765521","longitude":"121.065017","name":"Batangas, Philippines","id":"3218"},{"latitude":"33.892460","longitude":"35.485217","name":"Beirut, Lebanon","id":"3862"},{"latitude":"17.495491","longitude":"-88.181614","name":"Belize City, Belize","id":"5791"},{"latitude":"40.755601","longitude":"-72.937786","name":"Bellport, New York, United States","id":"5767"},{"latitude":"52.486294","longitude":"4.656850","name":"Beverwijk, Netherlands","id":"3080"},{"latitude":"43.268382","longitude":"-2.946141","name":"Bilbao, Spain","id":"3067"},{"latitude":"37.276397","longitude":"9.867323","name":"Bizerte, Tunisia","id":"5958"},{"latitude":"55.722261","longitude":"13.027297","name":"Bjärred, Sweden","id":"8404"},{"latitude":"55.751574","longitude":"8.328997","name":"Blaabjerg, Denmark","id":"5818"},{"latitude":"53.808689","longitude":"-3.050744","name":"Blackpool, United Kingdom","id":"8408"},{"latitude":"11.991787","longitude":"-83.771474","name":"Bluefields, Nicaragua","id":"5920"},{"latitude":"26.350304","longitude":"-80.088937","name":"Boca Raton, Florida, United States","id":"3563"},{"latitude":"51.293699","longitude":"-3.010890","name":"Brean, United Kingdom","id":"5736"},{"latitude":"51.246417","longitude":"2.961920","name":"Bredene, Belgium","id":"8396"},{"latitude":"68.734993","longitude":"16.553181","name":"Breivika, Norway","id":"9671"},{"latitude":"51.358850","longitude":"1.439455","name":"Broadstairs, United Kingdom","id":"6033"},{"latitude":"40.773169","longitude":"-72.912288","name":"Brookhaven, New York, United States","id":"4512"},{"latitude":"-33.761178","longitude":"151.273898","name":"Brookvale, Australia","id":"5781"},{"latitude":"50.828106","longitude":"-4.544398","name":"Bude, United Kingdom","id":"4554"},{"latitude":"17.949741","longitude":"-76.666652","name":"Bull Bay, Jamaica","id":"7689"},{"latitude":"55.556823","longitude":"12.918779","name":"Bunkeflostand, Sweden","id":"8401"},{"latitude":"28.969997","longitude":"50.842783","name":"Bushehr, Iran","id":"9683"},{"latitude":"-8.776624","longitude":"13.372327","name":"Cacuaco, Angola","id":"5775"},{"latitude":"50.952886","longitude":"1.852847","name":"Calais, France","id":"4490"},{"latitude":"10.606149","longitude":"-66.878292","name":"Camuri, Venezuela","id":"5966"},{"latitude":"21.095660","longitude":"-86.767566","name":"Cancún, Mexico","id":"3842"},{"latitude":"15.303345","longitude":"-61.384828","name":"Canefield, Dominica","id":"8835"},{"latitude":"-33.919086","longitude":"18.421981","name":"Cape Town, South Africa","id":"3921"},{"latitude":"10.386704","longitude":"-75.505780","name":"Cartagena, Colombia","id":"5693"},{"latitude":"24.403303","longitude":"-75.525907","name":"Cat Island, Bahamas","id":"5784"},{"latitude":"37.511603","longitude":"15.067457","name":"Catania, Italy","id":"3214"},{"latitude":"24.424987","longitude":"-76.574447","name":"Caves Point, Bahamas","id":"5786"},{"latitude":"14.286227","longitude":"120.820174","name":"Cavite, Philippines","id":"5931"},{"latitude":"4.941325","longitude":"-52.321110","name":"Cayenne, French Guiana","id":"5575"},{"latitude":"50.178804","longitude":"1.493463","name":"Cayeux-sur-Mer, France","id":"6051"},{"latitude":"19.690346","longitude":"-79.877673","name":"Cayman Brac, Cayman Islands","id":"6048"},{"latitude":"25.298251","longitude":"60.629687","name":"Chabahar, Iran","id":"8849"},{"latitude":"10.686157","longitude":"-61.650803","name":"Chaguaramas, Trinidad and Tobago","id":"8838"},{"latitude":"1.389040","longitude":"103.987023","name":"Changi, Singapore","id":"5937"},{"latitude":"35.511799","longitude":"24.012217","name":"Chania, Greece","id":"5723"},{"latitude":"41.411930","longitude":"-71.645909","name":"Charlestown, Rhode Island, United States","id":"3580"},{"latitude":"13.063516","longitude":"80.243049","name":"Chennai, India","id":"4191"},{"latitude":"34.976637","longitude":"139.954690","name":"Chikura, Japan","id":"5885"},{"latitude":"22.222100","longitude":"114.203081","name":"Chom Hom Kok, Hong Kong","id":"5856"},{"latitude":"31.619905","longitude":"121.395289","name":"Chongming, China","id":"5802"},{"latitude":"22.225011","longitude":"114.205691","name":"Chung Hom Kk, China","id":"10308"},{"latitude":"60.749930","longitude":"-2.399937","name":"Clair, United Kingdom","id":"10354"},{"latitude":"23.098376","longitude":"-74.966201","name":"Clarence Town, Bahamas","id":"10360"},{"latitude":"53.410053","longitude":"-6.197919","name":"Clonshaugh,Ireland","id":"10313"},{"latitude":"9.938075","longitude":"76.269541","name":"Cochin, India","id":"4322"},{"latitude":"24.052552","longitude":"-74.530272","name":"Cockburn Town, Bahamas","id":"10364"},{"latitude":"55.130782","longitude":"-6.676211","name":"Coleraine, United Kingdom","id":"9038"},{"latitude":"6.926774","longitude":"79.872019","name":"Colombo, Sri Lanka","id":"3887"},{"latitude":"9.353724","longitude":"-79.900009","name":"Colón, Panama","id":"6093"},{"latitude":"9.513540","longitude":"-13.703835","name":"Conakry, Guinea","id":"4208"},{"latitude":"36.276545","longitude":"-6.087192","name":"Conil, Spain","id":"5944"},{"latitude":"55.676083","longitude":"12.569333","name":"Copenhagen, Denmark","id":"3059"},{"latitude":"6.356577","longitude":"2.439909","name":"Cotonou, Benin","id":"3315"},{"latitude":"21.429245","longitude":"91.994923","name":"Cox’s Bazar, Bangladesh","id":"6299"},{"latitude":"22.629670","longitude":"-74.194980","name":"Crooked Island, Bahamas","id":"5782"},{"latitude":"24.424987","longitude":"-76.574447","name":"Crown Haven, Bahamas","id":"8355"},{"latitude":"25.407773","longitude":"-76.787668","name":"Current, Bahamas","id":"5787"},{"latitude":"16.582774","longitude":"120.389715","name":"Currimao, Philippines","id":"8536"},{"latitude":"36.529520","longitude":"-6.292734","name":"Cádiz, Spain","id":"4374"},{"latitude":"24.556694","longitude":"118.300968","name":"Dadeng Island, China","id":"10368"},{"latitude":"14.686669","longitude":"-17.451925","name":"Dakar, Senegal","id":"4180"},{"latitude":"16.051528","longitude":"108.214811","name":"Danang, Vietnam","id":"5986"},{"latitude":"-6.823198","longitude":"39.269697","name":"Dar Es Salaam, Tanzania","id":"4182"},{"latitude":"25.152590","longitude":"52.865977","name":"Das Island, United Arab Emirates","id":"6020"},{"latitude":"22.249405","longitude":"114.184008","name":"Deep Water Bay, Hong Kong","id":"5853"},{"latitude":"53.201750","longitude":"-3.027555","name":"Deeside Clwyd,United Kingdom","id":"10338"},{"latitude":"32.763612","longitude":"22.639228","name":"Derna, Libya","id":"7873"},{"latitude":"11.594657","longitude":"43.148039","name":"Djibouti City, Djibouti","id":"4177"},{"latitude":"25.294336","longitude":"51.519390","name":"Doha, Qatar","id":"3867"},{"latitude":"4.047180","longitude":"9.706303","name":"Douala, Cameroon","id":"4210"},{"latitude":"51.125552","longitude":"1.317585","name":"Dover, United Kingdom","id":"6086"},{"latitude":"55.593565","longitude":"12.670222","name":"Dragor, Denmark","id":"8400"},{"latitude":"58.922490","longitude":"2.685104","name":"Draupner, Norway","id":"7648"},{"latitude":"25.269340","longitude":"55.308487","name":"Dubai, United Arab Emirates","id":"3270"},{"latitude":"53.348014","longitude":"-6.248262","name":"Dublin, Ireland","id":"3077"},{"latitude":"1.665304","longitude":"101.447640","name":"Dumai, Indonesia","id":"7311"},{"latitude":"51.358549","longitude":"1.439354","name":"Dumpton Gap, United Kingdom","id":"8397"},{"latitude":"22.183250","longitude":"-75.733457","name":"Duncan Town, Bahamas","id":"10361"},{"latitude":"58.615306","longitude":"-3.346182","name":"Dunnet Bay, United Kingdom","id":"5746"},{"latitude":"26.539633","longitude":"-78.802882","name":"Eight-Mile Rock, Bahamas","id":"5783"},{"latitude":"56.549146","longitude":"3.210026","name":"Ekofisk, Norway","id":"7649"},{"latitude":"36.313387","longitude":"5.734200","name":"El Djemila, Algeria","id":"5774"},{"latitude":"28.046639","longitude":"-16.538606","name":"El Médano,Canary Islands, Spain","id":"5722"},{"latitude":"-9.480235","longitude":"147.156335","name":"Ela Beach, Papua New Guinea","id":"8350"},{"latitude":"35.062368","longitude":"140.061100","name":"Emi, Japan","id":"5894"},{"latitude":"36.427125","longitude":"-5.145865","name":"Estepona, Spain","id":"5943"},{"latitude":"22.249204","longitude":"120.662165","name":"Fangshan, Taiwan","id":"5980"},{"latitude":"57.863008","longitude":"19.055321","name":"Farosund, Sweden","id":"7412"},{"latitude":"43.982131","longitude":"-124.099890","name":"Florence, Oregon, United States","id":"8539"},{"latitude":"8.934107","longitude":"-79.546748","name":"Fort Amador, Panama","id":"5925"},{"latitude":"-3.718838","longitude":"-38.542979","name":"Fortaleza, Brazil","id":"3347"},{"latitude":"8.485379","longitude":"-13.238091","name":"Freetown, Sierra Leone","id":"4212"},{"latitude":"24.689807","longitude":"-77.844590","name":"Fresh Creek, Bahamas","id":"10358"},{"latitude":"25.121671","longitude":"56.333737","name":"Fujairah, United Arab Emirates","id":"5962"},{"latitude":"33.590296","longitude":"130.401687","name":"Fukuoka, Japan","id":"4059"},{"latitude":"62.244086","longitude":"-6.928132","name":"Funningsfjordur, Faeroe Islands","id":"5725"},{"latitude":"26.071129","longitude":"119.303230","name":"Fuzhou, China","id":"8620"},{"latitude":"29.570811","longitude":"50.521144","name":"Ganaveh, Iran","id":"5990"},{"latitude":"54.576346","longitude":"11.928966","name":"Gedser, Denmark","id":"5820"},{"latitude":"23.516487","longitude":"-75.788017","name":"George Town, Bahamas","id":"10359"},{"latitude":"6.804102","longitude":"-58.154935","name":"Georgetown, Guyana","id":"3904"},{"latitude":"36.155981","longitude":"-5.347693","name":"Gibraltar, Gibraltar","id":"8948"},{"latitude":"41.210654","longitude":"19.499231","name":"Gjirin e Lalezit, Albania","id":"10178"},{"latitude":"50.024811","longitude":"-5.174526","name":"Goonhilly Downs, United Kingdom","id":"3292"},{"latitude":"25.196057","longitude":"-76.240661","name":"Governors Harbor, Bahamas","id":"10357"},{"latitude":"27.964423","longitude":"-15.396255","name":"Gran Canaria,Canary Islands, Spain","id":"5721"},{"latitude":"53.219418","longitude":"6.567009","name":"Groningen, Netherlands","id":"3935"},{"latitude":"35.120592","longitude":"-120.621490","name":"Grover Beach, California, United States","id":"5748"},{"latitude":"24.493952","longitude":"118.189037","name":"Guanyin Mountain, China","id":"10369"},{"latitude":"24.476084","longitude":"118.307092","name":"Guningtou, Taiwan","id":"10366"},{"latitude":"32.811396","longitude":"34.998743","name":"Haifa, Israel","id":"3905"},{"latitude":"18.699027","longitude":"-70.161842","name":"Haina, Dominican Republic","id":"10120"},{"latitude":"19.282977","longitude":"-81.166789","name":"Half Moon Bay, Cayman Islands","id":"5799"},{"latitude":"44.645788","longitude":"-63.573962","name":"Halifax, Nova Scotia, Canada","id":"3640"},{"latitude":"25.668578","longitude":"52.420260","name":"Halul Island, Qatar","id":"6019"},{"latitude":"59.823260","longitude":"22.968195","name":"Hangö, Finland","id":"7694"},{"latitude":"60.301000","longitude":"22.302129","name":"Haradsholm, Finland","id":"9104"},{"latitude":"47.886272","longitude":"-122.302165","name":"Harbour Pointe, Washington, United States","id":"3641"},{"latitude":"17.949741","longitude":"-76.716896","name":"Harbour View, Jamaica","id":"9600"},{"latitude":"58.128129","longitude":"-134.741789","name":"Hawk Inlet, Alaska, United States","id":"8552"},{"latitude":"26.516846","longitude":"-78.736827","name":"Hawksbill, Bahamas","id":"5785"},{"latitude":"56.043799","longitude":"12.695820","name":"Helsingborg, Sweden","id":"3268"},{"latitude":"60.171100","longitude":"24.932463","name":"Helsingfors, Finland","id":"9103"},{"latitude":"56.030448","longitude":"12.592121","name":"Helsingør, Denmark","id":"6065"},{"latitude":"60.171100","longitude":"24.932463","name":"Helsinki, Finland","id":"3064"},{"latitude":"51.222224","longitude":"-2.975002","name":"Highbridge, United Kingdom","id":"5745"},{"latitude":"45.824830","longitude":"-123.811178","name":"Hillsboro, Oregon, United States","id":"3649"},{"latitude":"26.010194","longitude":"-80.160211","name":"Hollywood, Florida, United States","id":"3650"},{"latitude":"53.306052","longitude":"-4.630379","name":"Holyhead, United Kingdom","id":"6035"},{"latitude":"59.646378","longitude":"-151.544271","name":"Homer, Alaska, United States","id":"8392"},{"latitude":"54.180521","longitude":"-0.321028","name":"Hunmanby, United Kingdom","id":"5747"},{"latitude":"37.455989","longitude":"126.705146","name":"Incheon, Korea, Rep.","id":"7448"},{"latitude":"43.171207","longitude":"141.315432","name":"Ishikari, Japan","id":"7834"},{"latitude":"18.441736","longitude":"-66.016873","name":"Isla Verde, Puerto Rico, United States","id":"5773"},{"latitude":"40.600303","longitude":"-73.655953","name":"Island Park, New York, United States","id":"9763"},{"latitude":"41.040599","longitude":"28.986079","name":"Istanbul, Turkey","id":"3221"},{"latitude":"30.331743","longitude":"-81.655723","name":"Jacksonville, Florida, United States","id":"3655"},{"latitude":"-6.171889","longitude":"106.827868","name":"Jakarta, Indonesia","id":"3012"},{"latitude":"16.242965","longitude":"-61.554833","name":"Jarry, Guadeloupe","id":"8836"},{"latitude":"25.681226","longitude":"57.797376","name":"Jask, Iran","id":"6031"},{"latitude":"21.481246","longitude":"39.182762","name":"Jeddah, Saudi Arabia","id":"4361"},{"latitude":"58.299490","longitude":"-134.406848","name":"Juneau, Alaska, United States","id":"4816"},{"latitude":"21.354056","longitude":"-158.130545","name":"Kahe Point, Hawaii, United States","id":"5753"},{"latitude":"24.889376","longitude":"67.028539","name":"Karachi, Pakistan","id":"3259"},{"latitude":"1.309333","longitude":"103.894969","name":"Katong, Singapore","id":"5939"},{"latitude":"57.431044","longitude":"18.845312","name":"Katthammarsvik, Sweden","id":"10365"},{"latitude":"52.205211","longitude":"4.396447","name":"Katwijk, Netherlands","id":"3283"},{"latitude":"20.039893","longitude":"-155.831387","name":"Kawaihae, Hawaii, United States","id":"8973"},{"latitude":"-12.817090","longitude":"45.165913","name":"Kaweni, Mayotte","id":"10123"},{"latitude":"20.063885","longitude":"-155.838816","name":"Keawaula, Hawaii, United States","id":"5754"},{"latitude":"36.849352","longitude":"11.089934","name":"Kelibia, Tunisia","id":"6015"},{"latitude":"60.552871","longitude":"-151.259775","name":"Kenai, Alaska, United States","id":"8393"},{"latitude":"34.880668","longitude":"128.620826","name":"Keoje, Korea,Rep.","id":"5975"},{"latitude":"55.341895","longitude":"-131.647819","name":"Ketchikan, Alaska, United States","id":"8551"},{"latitude":"26.181353","longitude":"56.246802","name":"Khasab, Oman","id":"7645"},{"latitude":"52.174593","longitude":"-6.584106","name":"Kilmore Quay, Ireland","id":"5863"},{"latitude":"17.992204","longitude":"-76.792186","name":"Kingston, Jamaica","id":"3272"},{"latitude":"13.187895","longitude":"-61.254677","name":"Kingstown, Saint Vincent and the Grenadines","id":"4219"},{"latitude":"33.839256","longitude":"131.032015","name":"Kita-kyushu, Japan","id":"5895"},{"latitude":"36.801769","longitude":"140.750958","name":"Kitaibaraki, Japan","id":"5703"},{"latitude":"57.794143","longitude":"-152.395249","name":"Kodiak, Alaska, United States","id":"8394"},{"latitude":"39.753842","longitude":"19.923967","name":"Kokkini, Greece","id":"7730"},{"latitude":"54.172390","longitude":"15.574912","name":"Kolobrzeg, Poland","id":"5933"},{"latitude":"60.501071","longitude":"26.883579","name":"Kotka, Finland","id":"4552"},{"latitude":"2.932888","longitude":"9.910389","name":"Kribi, Cameroon","id":"10095"},{"latitude":"-0.816457","longitude":"103.466719","name":"Kuala Tungkal, Indonesia","id":"10283"},{"latitude":"3.815086","longitude":"103.322563","name":"Kuantan, Malaysia","id":"5903"},{"latitude":"29.374053","longitude":"47.974734","name":"Kuwait City, Kuwait","id":"3871"},{"latitude":"9.189793","longitude":"167.424318","name":"Kwajalein, Republic of Marshall Islands","id":"7879"},{"latitude":"59.000892","longitude":"22.738008","name":"Kärdla, Estonia","id":"5828"},{"latitude":"58.183643","longitude":"6.534785","name":"Kårstø, Norway","id":"5923"},{"latitude":"10.603137","longitude":"-66.889636","name":"La Guaira, Venezuela","id":"8352"},{"latitude":"28.663215","longitude":"-17.765182","name":"La Palma,Canary Islands, Spain","id":"7776"},{"latitude":"6.438895","longitude":"3.423247","name":"Lagos, Nigeria","id":"3280"},{"latitude":"24.455605","longitude":"118.289825","name":"Lake Ci, Taiwan","id":"10367"},{"latitude":"63.642172","longitude":"-20.142290","name":"Landeyjar, Iceland","id":"8994"},{"latitude":"63.733123","longitude":"-20.666760","name":"Landeyjasandur, Iceland","id":"8544"},{"latitude":"48.730224","longitude":"-3.459920","name":"Lannion, France","id":"5837"},{"latitude":"22.271490","longitude":"113.948400","name":"Lantau Island, Hong Kong","id":"5852"},{"latitude":"-36.472523","longitude":"-56.695512","name":"Las Toninas, Argentina","id":"3330"},{"latitude":"14.615495","longitude":"-61.094259","name":"Le Lamentin, Martinique","id":"5905"},{"latitude":"58.550958","longitude":"-134.747310","name":"Lena Point, Alaska, United States","id":"5765"},{"latitude":"0.394308","longitude":"9.454332","name":"Libreville, Gabon","id":"4221"},{"latitude":"56.508188","longitude":"21.011256","name":"Liepaja, Latvia","id":"5310"},{"latitude":"4.014555","longitude":"9.208485","name":"Limbe, Cameroon","id":"9846"},{"latitude":"38.725681","longitude":"-9.150142","name":"Lisbon, Portugal","id":"3146"},{"latitude":"59.799870","longitude":"28.499906","name":"Logi, Russia","id":"9102"},{"latitude":"6.125989","longitude":"1.227840","name":"Lome, Togo","id":"3317"},{"latitude":"78.218528","longitude":"15.648797","name":"Longyearbyen,Svalbard, Norway","id":"9672"},{"latitude":"34.053380","longitude":"-118.245336","name":"Los Angeles, California, United States","id":"3678"},{"latitude":"52.471336","longitude":"1.729221","name":"Lowestoft, United Kingdom","id":"3084"},{"latitude":"-8.812863","longitude":"13.234998","name":"Luanda, Angola","id":"4190"},{"latitude":"-12.278515","longitude":"-76.874302","name":"Lurin, Peru","id":"5930"},{"latitude":"57.244826","longitude":"10.514617","name":"Lyngsa, Denmark","id":"10320"},{"latitude":"42.463681","longitude":"-70.950280","name":"Lynn, Massachusetts, United States","id":"3683"},{"latitude":"47.824032","longitude":"-122.315817","name":"Lynnwood, Washington, United States","id":"5770"},{"latitude":"55.458645","longitude":"8.505577","name":"Maade, Denmark","id":"3083"},{"latitude":"-5.233674","longitude":"145.784851","name":"Madang, Papua New Guinea","id":"8558"},{"latitude":"10.599423","longitude":"-66.960358","name":"Maiquetia, Venezuela","id":"5968"},{"latitude":"7.116204","longitude":"171.185608","name":"Majuro, Republic of Marshall Islands","id":"9060"},{"latitude":"21.460265","longitude":"-158.206036","name":"Makaha, Hawaii, United States","id":"5760"},{"latitude":"-34.900367","longitude":"-54.950189","name":"Maldonado, Uruguay","id":"5963"},{"latitude":"4.166440","longitude":"73.499971","name":"Male, Maldives","id":"4251"},{"latitude":"26.229037","longitude":"50.575855","name":"Manama, Bahrain","id":"4188"},{"latitude":"40.123365","longitude":"-74.047060","name":"Manasquan, New Jersey, United States","id":"3686"},{"latitude":"38.969219","longitude":"-123.687000","name":"Manchester, California, United States","id":"3687"},{"latitude":"-4.154015","longitude":"-81.053804","name":"Mancora, Peru","id":"8484"},{"latitude":"-25.968556","longitude":"32.580627","name":"Maputo, Mozambique","id":"4252"},{"latitude":"9.437346","longitude":"-79.753544","name":"Maria Chiquita, Panama","id":"5928"},{"latitude":"60.113880","longitude":"19.937820","name":"Mariehamn, Finland","id":"5830"},{"latitude":"36.855275","longitude":"28.253658","name":"Marmaris, Turkey","id":"5959"},{"latitude":"43.293177","longitude":"5.372607","name":"Marseille, France","id":"3210"},{"latitude":"35.037472","longitude":"139.816960","name":"Maruyama, Japan","id":"5887"},{"latitude":"20.950501","longitude":"-73.683058","name":"Matthew Town, Bahamas","id":"9581"},{"latitude":"22.401591","longitude":"-73.064123","name":"Mayaguana, Bahamas","id":"10362"},{"latitude":"60.003956","longitude":"-1.323791","name":"Maywick, United Kingdom","id":"8684"},{"latitude":"37.650037","longitude":"12.591318","name":"Mazara del Vallo, Italy","id":"3215"},{"latitude":"23.199465","longitude":"-106.421885","name":"Mazatlán, Mexico","id":"3470"},{"latitude":"3.751742","longitude":"98.676063","name":"Medan, Indonesia","id":"5861"},{"latitude":"2.273146","longitude":"102.220919","name":"Melaka, Malaysia","id":"6300"},{"latitude":"-33.727247","longitude":"18.445772","name":"Melkbosstrand, South Africa","id":"5941"},{"latitude":"2.295532","longitude":"103.849895","name":"Mersing, Malaysia","id":"5902"},{"latitude":"25.788640","longitude":"-80.226416","name":"Miami, Florida, United States","id":"3696"},{"latitude":"48.864340","longitude":"-53.965144","name":"Milton, Newfoundland and Labrador, Canada","id":"8542"},{"latitude":"18.453381","longitude":"-66.082777","name":"Miramar, Puerto Rico, United States","id":"5762"},{"latitude":"35.144082","longitude":"139.620703","name":"Miura, Japan","id":"5889"},{"latitude":"-4.053227","longitude":"39.672850","name":"Mombasa, Kenya","id":"5896"},{"latitude":"43.732570","longitude":"7.417686","name":"Monaco, Monaco","id":"3255"},{"latitude":"6.300160","longitude":"-10.797187","name":"Monrovia, Liberia","id":"4178"},{"latitude":"18.349481","longitude":"-77.816733","name":"Morant Point, Jamaica","id":"8685"},{"latitude":"-11.700689","longitude":"43.243406","name":"Moroni, Comoros","id":"4227"},{"latitude":"35.366740","longitude":"-120.847209","name":"Morro Bay, California, United States","id":"5751"},{"latitude":"35.898690","longitude":"14.488125","name":"Msida, Malta","id":"4058"},{"latitude":"6.832712","longitude":"79.866799","name":"Mt. Lavinia, Sri Lanka","id":"5949"},{"latitude":"-28.950645","longitude":"31.757858","name":"Mtunzini, South Africa","id":"5942"},{"latitude":"-5.933370","longitude":"12.349888","name":"Muanda, Congo,Dem. Rep.","id":"9426"},{"latitude":"19.075779","longitude":"72.875866","name":"Mumbai, India","id":"3212"},{"latitude":"54.266352","longitude":"2.333499","name":"Murdoch, Norway","id":"7651"},{"latitude":"23.615167","longitude":"58.591033","name":"Muscat, Oman","id":"4225"},{"latitude":"42.812325","longitude":"132.874012","name":"Nakhodka, Russia","id":"5362"},{"latitude":"18.414732","longitude":"-64.597254","name":"Nanny Cay, Virgin Islands (U.K.)","id":"10121"},{"latitude":"37.169686","longitude":"138.242092","name":"Naoetsu, Japan","id":"5529"},{"latitude":"57.426828","longitude":"-152.329145","name":"Narrow Cape, Alaska, United States","id":"8395"},{"latitude":"25.067060","longitude":"-77.340247","name":"Nassau, Bahamas","id":"4230"},{"latitude":"14.317347","longitude":"120.695794","name":"Nasugbu, Philippines","id":"9603"},{"latitude":"45.643733","longitude":"-123.940125","name":"Nedonna Beach, Oregon, United States","id":"3711"},{"latitude":"13.078775","longitude":"-59.612701","name":"Needham’s Point, Barbados","id":"6183"},{"latitude":"46.684442","longitude":"141.859227","name":"Nevelsk, Russia","id":"8366"},{"latitude":"60.689798","longitude":"-151.291698","name":"Nikiski, Alaska, United States","id":"8540"},{"latitude":"35.299381","longitude":"139.255396","name":"Ninomiya, Japan","id":"5890"},{"latitude":"53.595467","longitude":"7.201855","name":"Norden, Germany","id":"5840"},{"latitude":"25.932896","longitude":"-80.162369","name":"North Miami Beach, Florida, United States","id":"5772"},{"latitude":"40.818744","longitude":"-72.805276","name":"Northport, New York, United States","id":"9762"},{"latitude":"18.083857","longitude":"-15.978298","name":"Nouakchott, Mauritania","id":"4192"},{"latitude":"-22.303336","longitude":"166.439122","name":"Noumea, New Caledonia","id":"5704"},{"latitude":"44.723588","longitude":"37.772831","name":"Novorossiysk, Russia","id":"5117"},{"latitude":"-21.133329","longitude":"-175.200006","name":"Nuku'alofa, Tonga","id":"10315"},{"latitude":"64.181149","longitude":"-51.729983","name":"Nuuk, Greenland","id":"8488"},{"latitude":"-4.050416","longitude":"39.700055","name":"Nyali, Kenya","id":"10122"},{"latitude":"18.398570","longitude":"-77.103234","name":"Ocho Rios, Jamaica","id":"7688"},{"latitude":"46.488989","longitude":"30.677495","name":"Odessa, Ukraine","id":"5355"},{"latitude":"26.212373","longitude":"127.680604","name":"Okinawa, Japan","id":"5886"},{"latitude":"35.701630","longitude":"-0.641964","name":"Oran, Algeria","id":"8359"},{"latitude":"51.231159","longitude":"2.912630","name":"Ostend, Belgium","id":"5789"},{"latitude":"55.858285","longitude":"10.600950","name":"Osterby, Denmark","id":"10322"},{"latitude":"-33.737386","longitude":"151.244986","name":"Oxford Falls, Australia","id":"5778"},{"latitude":"51.557817","longitude":"-4.169604","name":"Oxwich Bay, United Kingdom","id":"3145"},{"latitude":"22.924104","longitude":"121.229952","name":"Pa Li, Taiwan","id":"5983"},{"latitude":"-33.882144","longitude":"151.228623","name":"Paddington, Australia","id":"5779"},{"latitude":"32.280551","longitude":"-64.788692","name":"Paget, Bermuda","id":"9069"},{"latitude":"-14.276512","longitude":"-170.695703","name":"Pago Pago, American Samoa","id":"9070"},{"latitude":"38.121453","longitude":"13.358373","name":"Palermo, Italy","id":"3177"},{"latitude":"39.552366","longitude":"2.605246","name":"Palma, Spain","id":"4723"},{"latitude":"8.964424","longitude":"-79.536709","name":"Panama City, Panama","id":"3334"},{"latitude":"-17.512379","longitude":"-149.441068","name":"Papenoo, French Polynesia","id":"8974"},{"latitude":"55.030897","longitude":"14.992167","name":"Pedersker, Denmark","id":"5822"},{"latitude":"5.353613","longitude":"100.362961","name":"Penang, Malaysia","id":"3307"},{"latitude":"47.811283","longitude":"-4.338706","name":"Penmarch, France","id":"3119"},{"latitude":"35.020205","longitude":"33.960644","name":"Pentaskhinos, Cyprus","id":"5812"},{"latitude":"-31.953413","longitude":"115.857254","name":"Perth, Australia","id":"3239"},{"latitude":"56.807642","longitude":"-132.970063","name":"Petersburg, Alaska, United States","id":"8550"},{"latitude":"50.819071","longitude":"0.366672","name":"Pevensey Bay, United Kingdom","id":"6050"},{"latitude":"13.464662","longitude":"144.694751","name":"Piti, Guam","id":"5973"},{"latitude":"48.534771","longitude":"-2.768055","name":"Plerin, France","id":"5836"},{"latitude":"7.786486","longitude":"159.070234","name":"Pohnpei, Federated States of Micronesia","id":"9062"},{"latitude":"-4.779123","longitude":"11.863614","name":"Point Noire, Congo,Rep.","id":"5971"},{"latitude":"37.739281","longitude":"-25.668781","name":"Ponta Delgada, Portugal","id":"5945"},{"latitude":"23.652109","longitude":"-74.840567","name":"Port Nelson, Bahamas","id":"10363"},{"latitude":"10.649817","longitude":"-61.516686","name":"Port of Spain, Trinidad and Tobago","id":"4236"},{"latitude":"19.615558","longitude":"37.219700","name":"Port Sudan, Sudan","id":"5950"},{"latitude":"-17.730419","longitude":"168.322880","name":"Port Vila, Vanuatu","id":"9086"},{"latitude":"18.542725","longitude":"-72.343146","name":"Port-au-Prince, Haiti","id":"3878"},{"latitude":"50.043081","longitude":"-5.654525","name":"Porthcurno, United Kingdom","id":"3082"},{"latitude":"42.150776","longitude":"41.667635","name":"Poti, Georgia","id":"5530"},{"latitude":"51.119830","longitude":"-4.227829","name":"Pottington, United Kingdom","id":"5744"},{"latitude":"36.733707","longitude":"14.853834","name":"Pozzallo, Italy","id":"8972"},{"latitude":"14.923080","longitude":"-23.521257","name":"Praia, Cape Verde","id":"4257"},{"latitude":"21.851071","longitude":"-72.120237","name":"Providenciales, Turks and Caicos Islands","id":"4258"},{"latitude":"15.727178","longitude":"-88.597215","name":"Puerto Barrios, Guatemala","id":"5848"},{"latitude":"14.021607","longitude":"-83.393919","name":"Puerto Cabezas, Nicaragua","id":"5921"},{"latitude":"15.844831","longitude":"-87.946006","name":"Puerto Cortes, Honduras","id":"5851"},{"latitude":"15.261283","longitude":"-83.776794","name":"Puerto Lempira, Honduras","id":"5692"},{"latitude":"9.988570","longitude":"-83.037697","name":"Puerto Limon, Costa Rica","id":"5810"},{"latitude":"19.799366","longitude":"-70.691232","name":"Puerto Plata, Dominican Republic","id":"5823"},{"latitude":"13.934572","longitude":"-90.822237","name":"Puerto San Jose, Guatemala","id":"5849"},{"latitude":"10.722397","longitude":"-62.473924","name":"Puerto Viejo, Venezuela","id":"5967"},{"latitude":"18.621328","longitude":"-68.438252","name":"Punta Cana, Dominican Republic","id":"5694"},{"latitude":"-2.272968","longitude":"-80.914417","name":"Punta Carnero, Ecuador","id":"5824"},{"latitude":"11.708596","longitude":"-70.204356","name":"Punto Fijo, Venezuela","id":"5965"},{"latitude":"35.170083","longitude":"128.999384","name":"Pusan, Korea,Rep.","id":"4183"},{"latitude":"54.496037","longitude":"11.212506","name":"Puttgarden, Germany","id":"5839"},{"latitude":"16.282216","longitude":"95.682028","name":"Pyapon, Myanmar","id":"5911"},{"latitude":"60.718910","longitude":"-46.035394","name":"Qaqortoq, Greenland","id":"8543"},{"latitude":"36.087115","longitude":"120.342634","name":"Qingdao, China","id":"6012"},{"latitude":"54.613891","longitude":"-1.068206","name":"Redcar, United Kingdom","id":"3085"},{"latitude":"33.844375","longitude":"-118.387985","name":"Redondo Beach, California, United States","id":"4992"},{"latitude":"1.677150","longitude":"103.147690","name":"Rengit, Malaysia","id":"8970"},{"latitude":"54.243363","longitude":"12.431502","name":"Ribnitz, Germany","id":"5842"},{"latitude":"24.424987","longitude":"-76.574447","name":"Riding Point, Bahamas","id":"8354"},{"latitude":"-22.903448","longitude":"-43.209557","name":"Rio de Janeiro, Brazil","id":"3242"},{"latitude":"11.482927","longitude":"-72.952744","name":"Riohacha, Colombia","id":"5807"},{"latitude":"54.663080","longitude":"11.358669","name":"Rodbyhavn, Denmark","id":"5814"},{"latitude":"14.035661","longitude":"-60.988552","name":"Rodney Bay, Saint Lucia","id":"8837"},{"latitude":"33.450157","longitude":"35.386236","name":"Saida, Lebanon","id":"6047"},{"latitude":"17.900049","longitude":"-62.833359","name":"Saint Barthelemy, Guadeloupe","id":"7876"},{"latitude":"18.031054","longitude":"-63.073735","name":"Saint Maarten, Netherlands Antilles","id":"3188"},{"latitude":"18.092792","longitude":"-63.050094","name":"Saint Martin, Guadeloupe","id":"7875"},{"latitude":"-21.000216","longitude":"55.279174","name":"Saint Paul, Réunion","id":"5978"},{"latitude":"-20.897319","longitude":"55.549917","name":"Sainte Marie, Réunion","id":"9399"},{"latitude":"1.258838","longitude":"103.704234","name":"Sakra Island, Singapore","id":"10307"},{"latitude":"-12.969979","longitude":"-38.504631","name":"Salvador, Brazil","id":"3342"},{"latitude":"18.465829","longitude":"-66.106669","name":"San Juan, Puerto Rico, United States","id":"4262"},{"latitude":"35.285025","longitude":"-120.662699","name":"San Luis Obispo, California, United States","id":"3772"},{"latitude":"59.996026","longitude":"-1.238663","name":"Sandwick, United Kingdom","id":"8683"},{"latitude":"26.025151","longitude":"-77.399525","name":"Sandy Point, Bahamas","id":"5788"},{"latitude":"53.331450","longitude":"-6.215436","name":"Sandymount, Ireland","id":"5865"},{"latitude":"0.859600","longitude":"6.532877","name":"Santana, Sao Tome and Principe","id":"10094"},{"latitude":"-23.961926","longitude":"-46.328071","name":"Santos, Brazil","id":"3411"},{"latitude":"6.613166","longitude":"100.066118","name":"Satun, Thailand","id":"5956"},{"latitude":"44.305577","longitude":"8.483793","name":"Savona, Italy","id":"5880"},{"latitude":"60.333124","longitude":"-4.333436","name":"Schiehallion, United Kingdom","id":"10353"},{"latitude":"38.642259","longitude":"-9.107377","name":"Seixal, Portugal","id":"9058"},{"latitude":"50.076109","longitude":"-5.698745","name":"Sennen Cove, United Kingdom","id":"5742"},{"latitude":"39.354604","longitude":"2.971005","name":"Ses Covetes, Spain","id":"5948"},{"latitude":"38.442690","longitude":"-9.102760","name":"Sesimbra, Portugal","id":"5934"},{"latitude":"60.112173","longitude":"-149.443126","name":"Seward, Alaska, United States","id":"5755"},{"latitude":"65.251372","longitude":"-14.018046","name":"Seydisfjordur, Iceland","id":"5859"},{"latitude":"31.247571","longitude":"121.472487","name":"Shanghai, China","id":"3246"},{"latitude":"23.354563","longitude":"116.675506","name":"Shantou, China","id":"5803"},{"latitude":"34.336772","longitude":"136.874423","name":"Shima, Japan","id":"5883"},{"latitude":"36.576300","longitude":"126.391638","name":"Shindu-Ri, Korea,Rep.","id":"5977"},{"latitude":"40.800273","longitude":"-72.872234","name":"Shirley, New York, United States","id":"3783"},{"latitude":"19.963699","longitude":"-75.712376","name":"Siboney, Cuba","id":"8351"},{"latitude":"1.293672","longitude":"103.853007","name":"Singapore, Singapore","id":"3029"},{"latitude":"57.052887","longitude":"-135.334372","name":"Sitka, Alaska, United States","id":"8554"},{"latitude":"52.207118","longitude":"1.620301","name":"Sizewell, United Kingdom","id":"8398"},{"latitude":"56.683163","longitude":"12.683272","name":"Skalvik, Sweden","id":"10323"},{"latitude":"50.063560","longitude":"-5.675054","name":"Skewjack, United Kingdom","id":"5741"},{"latitude":"43.615519","longitude":"39.725855","name":"Sochi, Russia","id":"5092"},{"latitude":"7.078459","longitude":"100.596963","name":"Songkhla, Thailand","id":"4265"},{"latitude":"53.647969","longitude":"-3.006373","name":"Southport, United Kingdom","id":"3324"},{"latitude":"26.378011","longitude":"-80.067705","name":"Spanish River Park, Florida, United States","id":"8357"},{"latitude":"20.023128","longitude":"-155.822051","name":"Spencer Beach, Hawaii, United States","id":"5752"},{"latitude":"13.174444","longitude":"100.930548","name":"Sri Racha, Thailand","id":"6014"},{"latitude":"17.771855","longitude":"-64.819410","name":"St. Croix, Virgin Islands, United States","id":"5750"},{"latitude":"32.312172","longitude":"-64.769518","name":"St. David’s, Bermuda","id":"5793"},{"latitude":"12.187943","longitude":"-61.711637","name":"St. George’s, Grenada","id":"4244"},{"latitude":"17.051480","longitude":"-61.857951","name":"St. John’s, Antigua and Barbuda","id":"4239"},{"latitude":"35.950389","longitude":"14.415646","name":"St. Paul's Bay, Malta","id":"8561"},{"latitude":"18.414732","longitude":"-64.597254","name":"St. Thomas, Virgin Islands (U.S.)","id":"4359"},{"latitude":"49.860478","longitude":"0.708439","name":"St. Valéry, France","id":"5331"},{"latitude":"59.822758","longitude":"18.764601","name":"Stavsnas, Sweden","id":"5952"},{"latitude":"59.332168","longitude":"18.062897","name":"Stockholm, Sweden","id":"3063"},{"latitude":"29.972258","longitude":"32.530133","name":"Suez, Egypt","id":"5825"},{"latitude":"-0.067070","longitude":"109.183242","name":"Sungai Kakap, Indonesia","id":"9094"},{"latitude":"-18.123834","longitude":"178.437446","name":"Suva, Fiji","id":"4268"},{"latitude":"56.028340","longitude":"21.082430","name":"Sventoji, Lithuania","id":"5311"},{"latitude":"-22.678280","longitude":"14.528079","name":"Swakopmund, Namibia","id":"9845"},{"latitude":"-33.869897","longitude":"151.207040","name":"Sydney, Australia","id":"3030"},{"latitude":"54.898487","longitude":"8.383407","name":"Sylt, Germany","id":"3142"},{"latitude":"22.156146","longitude":"113.561007","name":"Taipa, China","id":"5900"},{"latitude":"-36.787938","longitude":"174.767909","name":"Takapuna, New Zealand","id":"5918"},{"latitude":"59.436169","longitude":"24.752369","name":"Tallinn, Estonia","id":"3089"},{"latitude":"13.549087","longitude":"144.809393","name":"Tanguisson Point, Guam","id":"3251"},{"latitude":"1.173208","longitude":"104.133186","name":"Tanjung Bemban, Indonesia","id":"9096"},{"latitude":"-5.981455","longitude":"107.120897","name":"Tanjung Pakis, Indonesia","id":"9095"},{"latitude":"25.181300","longitude":"121.462649","name":"Tanshui, Taiwan","id":"5982"},{"latitude":"34.891710","longitude":"35.897807","name":"Tartous, Syria","id":"6030"},{"latitude":"32.044642","longitude":"34.769661","name":"Tel Aviv, Israel","id":"3213"},{"latitude":"4.703710","longitude":"114.570597","name":"Telisai, Brunei","id":"10309"},{"latitude":"28.292788","longitude":"-16.522745","name":"Tenerife,Canary Islands, Spain","id":"7713"},{"latitude":"-20.077862","longitude":"57.510069","name":"Terre Rouge, Mauritius","id":"9400"},{"latitude":"52.180817","longitude":"1.613074","name":"Thorpeness, United Kingdom","id":"8399"},{"latitude":"32.530815","longitude":"-117.038235","name":"Tijuana, Mexico","id":"3484"},{"latitude":"-18.146221","longitude":"49.400326","name":"Toamasina, Madagascar","id":"9398"},{"latitude":"-23.354787","longitude":"43.663123","name":"Toliary, Madagascar","id":"7398"},{"latitude":"9.496273","longitude":"-75.558583","name":"Tolu, Colombia","id":"5808"},{"latitude":"22.227320","longitude":"113.932137","name":"Tong Fuk, Hong Kong","id":"5855"},{"latitude":"62.017513","longitude":"-6.771880","name":"Torshavn, Faeroe Islands","id":"8681"},{"latitude":"18.414732","longitude":"-64.597254","name":"Tortola, Virgin Islands (U.K.)","id":"9589"},{"latitude":"5.886567","longitude":"-56.375379","name":"Totness, Suriname","id":"9669"},{"latitude":"24.863576","longitude":"121.801454","name":"Toucheng, Taiwan","id":"5981"},{"latitude":"34.769038","longitude":"137.391515","name":"Toyohashi, Japan","id":"5893"},{"latitude":"34.439468","longitude":"35.859158","name":"Trablous, Lebanon","id":"6046"},{"latitude":"38.017954","longitude":"12.513618","name":"Trapani, Italy","id":"5876"},{"latitude":"34.439468","longitude":"35.859158","name":"Tripoli, Lebanon","id":"8663"},{"latitude":"32.877350","longitude":"13.187314","name":"Tripoli, Libya","id":"4271"},{"latitude":"8.798184","longitude":"76.970240","name":"Trivendrum, India","id":"7706"},{"latitude":"15.915102","longitude":"-85.954735","name":"Trujillo, Honduras","id":"5850"},{"latitude":"22.318270","longitude":"114.258695","name":"Tseung Kwan O, Hong Kong","id":"5857"},{"latitude":"1.338244","longitude":"103.646210","name":"Tuas, Singapore","id":"5938"},{"latitude":"55.721959","longitude":"12.545541","name":"Tuborg, Denmark","id":"8402"},{"latitude":"39.603864","longitude":"-74.337931","name":"Tuckerton, New Jersey, United States","id":"3808"},{"latitude":"20.212558","longitude":"-87.463598","name":"Tulum, Mexico","id":"5908"},{"latitude":"13.513550","longitude":"144.800459","name":"Tumon Bay, Guam","id":"5972"},{"latitude":"4.926367","longitude":"114.885811","name":"Tungku, Brunei","id":"5970"},{"latitude":"8.802199","longitude":"78.145167","name":"Tuticorine, India","id":"7678"},{"latitude":"35.565908","longitude":"-5.391813","name":"Tétouan, Morocco","id":"5909"},{"latitude":"57.111111","longitude":"2.847228","name":"Ula, Norway","id":"7647"},{"latitude":"9.525887","longitude":"-84.454254","name":"Unqui, Costa Rica","id":"7981"},{"latitude":"61.130396","longitude":"-146.353323","name":"Valdez, Alaska, United States","id":"5764"},{"latitude":"39.468342","longitude":"-0.376943","name":"Valencia, Spain","id":"3066"},{"latitude":"56.278102","longitude":"3.395340","name":"Valhala, Norway","id":"7650"},{"latitude":"-33.045822","longitude":"-71.620512","name":"Valparaíso, Chile","id":"3331"},{"latitude":"43.208350","longitude":"27.912845","name":"Varna, Bulgaria","id":"5356"},{"latitude":"57.389484","longitude":"21.570009","name":"Ventspils, Latvia","id":"5897"},{"latitude":"27.638366","longitude":"-80.394263","name":"Vero Beach, Florida, United States","id":"3813"},{"latitude":"57.272232","longitude":"10.966960","name":"Vestero, Denmark","id":"10321"},{"latitude":"-4.617601","longitude":"55.445013","name":"Victoria, Seychelles","id":"4362"},{"latitude":"10.341931","longitude":"107.079236","name":"Vung Tau, Vietnam","id":"6013"},{"latitude":"35.035866","longitude":"140.016729","name":"Wada, Japan","id":"5892"},{"latitude":"40.152879","longitude":"-74.062871","name":"Wall Township, New Jersey, United States","id":"3822"},{"latitude":"46.165141","longitude":"-123.923862","name":"Warrenton, Oregon, United States","id":"6191"},{"latitude":"-36.788842","longitude":"174.623453","name":"Whenuapai, New Zealand","id":"5919"},{"latitude":"50.078518","longitude":"-5.698444","name":"Whitesands Bay, United Kingdom","id":"3081"},{"latitude":"60.772919","longitude":"-148.684704","name":"Whittier, Alaska, United States","id":"6255"},{"latitude":"12.095286","longitude":"-68.896618","name":"Willemstad, Netherlands Antilles","id":"4275"},{"latitude":"53.589845","longitude":"-6.137134","name":"Woodland Meath,Ireland","id":"10337"},{"latitude":"56.470744","longitude":"-132.383805","name":"Wrangell, Alaska, United States","id":"8549"},{"latitude":"34.766427","longitude":"32.466588","name":"Yeroskipos, Cyprus","id":"5811"},{"latitude":"55.431340","longitude":"13.828283","name":"Ystad, Sweden","id":"5954"},{"latitude":"-33.348187","longitude":"18.155554","name":"Yzerfontein, South Africa","id":"9844"},{"latitude":"29.116662","longitude":"32.649894","name":"Zafarana, Egypt","id":"9486"},{"latitude":"52.370448","longitude":"4.527251","name":"Zandvoort, Netherlands","id":"3141"},{"latitude":"51.330742","longitude":"3.206964","name":"Zeebrugge, Belgium","id":"3139"}]
