[{"longitude":"-4.026252","name":"Abidjan, Côte d'Ivoire","latitude":"5.323497","id":"3316"},{"longitude":"54.418960","name":"Abu Dhabi, United Arab Emirates","latitude":"24.443759","id":"3858"},{"longitude":"29.702539","name":"Abu Talat, Egypt","latitude":"31.071894","id":"9485"},{"longitude":"-0.201065","name":"Accra, Ghana","latitude":"5.558302","id":"4181"},{"longitude":"45.033503","name":"Aden, Yemen","latitude":"12.800704","id":"5969"},{"longitude":"8.738675","name":"Ajaccio, France","latitude":"41.919284","id":"6053"},{"longitude":"140.612324","name":"Ajigaura, Japan","latitude":"36.383558","id":"5884"},{"longitude":"21.741670","name":"Al Baida, Libya","latitude":"32.881767","id":"10838"},{"longitude":"19.576529","name":"Al Brega, Libya","latitude":"30.378121","id":"7870"},{"longitude":"51.451930","name":"Al Daayen, Qatar","latitude":"25.538577","id":"10232"},{"longitude":"52.182344","name":"Al Ghaydah, Yemen","latitude":"16.210339","id":"7679"},{"longitude":"50.656264","name":"Al Hidd, Bahrain","latitude":"26.241585","id":"10233"},{"longitude":"43.008501","name":"Al Hudaydah, Yemen","latitude":"14.685565","id":"7681"},{"longitude":"50.214262","name":"Al Khobar, Saudi Arabia","latitude":"26.286157","id":"7729"},{"longitude":"14.264464","name":"Al Khoms, Libya","latitude":"32.649673","id":"7866"},{"longitude":"47.976541","name":"Al Safat, Kuwait","latitude":"29.369937","id":"4294"},{"longitude":"58.176135","name":"Al Seeb, Oman","latitude":"23.684634","id":"7646"},{"longitude":"48.531780","name":"Al-Faw, Iraq","latitude":"29.923369","id":"9596"},{"longitude":"51.519390","name":"Al-Kheesa, Qatar","latitude":"25.294336","id":"10682"},{"longitude":"151.196198","name":"Alexandria, Australia","latitude":"-33.913966","id":"6097"},{"longitude":"29.889861","name":"Alexandria, Egypt","latitude":"31.191856","id":"6044"},{"longitude":"3.031789","name":"Algiers, Algeria","latitude":"36.765328","id":"4176"},{"longitude":"4.746194","name":"Alkmaar, Netherlands","latitude":"52.634666","id":"3086"},{"longitude":"12.536908","name":"Alsgarde, Denmark","latitude":"56.074919","id":"10737"},{"longitude":"-15.699976","name":"Alta Vista,Canary Islands, Spain","latitude":"27.999558","id":"10726"},{"longitude":"50.575855","name":"Amway Island, Bahrain","latitude":"26.229037","id":"10683"},{"longitude":"32.575608","name":"Anatoliko, Cyprus","latitude":"34.692643","id":"10384"},{"longitude":"-149.858376","name":"Anchorage, Alaska, United States","latitude":"61.217431","id":"4067"},{"longitude":"106.833389","name":"Ancol, Indonesia","latitude":"-6.129325","id":"5860"},{"longitude":"-134.582274","name":"Angoon, Alaska, United States","latitude":"57.501816","id":"8553"},{"longitude":"7.755488","name":"Annaba, Algeria","latitude":"36.902356","id":"4196"},{"longitude":"-171.766679","name":"Apia, Samoa","latitude":"-13.833706","id":"5705"},{"longitude":"35.006975","name":"Aqaba, Jordan","latitude":"29.531761","id":"4363"},{"longitude":"-2.021328","name":"Archirondel, Jersey","latitude":"49.225231","id":"10377"},{"longitude":"8.772405","name":"Arendal, Norway","latitude":"58.461715","id":"6056"},{"longitude":"-70.306750","name":"Arica, Chile","latitude":"-18.473782","id":"5800"},{"longitude":"-6.035744","name":"Asilah, Morocco","latitude":"35.470741","id":"5910"},{"longitude":"23.736254","name":"Athens, Greece","latitude":"37.976093","id":"3211"},{"longitude":"174.770419","name":"Auckland, New Zealand","latitude":"-36.884410","id":"3319"},{"longitude":"160.700012","name":"Auki, Solomon Islands","latitude":"-8.766686","id":"10893"},{"longitude":"33.999996","name":"Ayia Napa, Cyprus","latitude":"34.983263","id":"6029"},{"longitude":"-2.900114","name":"Ayre of Caira, United Kingdom","latitude":"58.833246","id":"8682"},{"longitude":"-69.964030","name":"Baby Beach, Aruba","latitude":"12.518115","id":"5776"},{"longitude":"14.458812","name":"Bahar ic-Caghaq, Malta","latitude":"35.934126","id":"9028"},{"longitude":"57.485374","name":"Baie Jacotet, Mauritius","latitude":"-20.473988","id":"5906"},{"longitude":"-61.713946","name":"Baillif, Guadeloupe","latitude":"16.028941","id":"8834"},{"longitude":"-79.566674","name":"Balboa, Panama","latitude":"8.949969","id":"8722"},{"longitude":"28.167425","name":"Balchik, Bulgaria","latitude":"43.414344","id":"9594"},{"longitude":"121.514047","name":"Ballesteros, Philippines","latitude":"18.409411","id":"8541"},{"longitude":"-6.364862","name":"Ballinesker, Ireland","latitude":"52.401467","id":"8407"},{"longitude":"14.380009","name":"Balluta Bay, Malta","latitude":"35.934126","id":"6170"},{"longitude":"-6.558809","name":"Ballygrangans, Ireland","latitude":"52.184029","id":"8406"},{"longitude":"56.274409","name":"Bandar Abbas, Iran","latitude":"27.187329","id":"8848"},{"longitude":"-124.408279","name":"Bandon, Oregon, United States","latitude":"43.118504","id":"3554"},{"longitude":"-2.523663","name":"Banff, United Kingdom","latitude":"57.666852","id":"8680"},{"longitude":"-16.581371","name":"Banjul, Gambia","latitude":"13.455928","id":"4348"},{"longitude":"19.100294","name":"Bar, Montenegro","latitude":"42.093054","id":"9342"},{"longitude":"2.168564","name":"Barcelona, Spain","latitude":"41.385327","id":"3036"},{"longitude":"16.866689","name":"Bari, Italy","latitude":"41.125526","id":"3160"},{"longitude":"58.004373","name":"Barka, Oman","latitude":"23.679414","id":"8947"},{"longitude":"-74.779783","name":"Barranquilla, Colombia","latitude":"10.940437","id":"4315"},{"longitude":"12.955420","name":"Barsebäck, Sweden","latitude":"55.770346","id":"8403"},{"longitude":"-62.731215","name":"Basseterre, Saint Kitts and Nevis","latitude":"17.298431","id":"4356"},{"longitude":"9.768242","name":"Bata, Equatorial Guinea","latitude":"1.860054","id":"9434"},{"longitude":"103.962529","name":"Batam, Indonesia","latitude":"1.134660","id":"5862"},{"longitude":"121.065017","name":"Batangas, Philippines","latitude":"13.765521","id":"3218"},{"longitude":"35.485217","name":"Beirut, Lebanon","latitude":"33.892460","id":"3862"},{"longitude":"-88.181614","name":"Belize City, Belize","latitude":"17.495491","id":"5791"},{"longitude":"-72.937837","name":"Bellport, New York, United States","latitude":"40.755601","id":"5767"},{"longitude":"-9.991182","name":"Belmullet, Ireland","latitude":"54.224691","id":"10395"},{"longitude":"20.066717","name":"Benghazi, Libya","latitude":"32.116619","id":"7871"},{"longitude":"4.656950","name":"Beverwijk, Netherlands","latitude":"52.486294","id":"3080"},{"longitude":"-2.946141","name":"Bilbao, Spain","latitude":"43.268382","id":"3067"},{"longitude":"9.867323","name":"Bizerte, Tunisia","latitude":"37.276397","id":"5958"},{"longitude":"8.328997","name":"Blaabjerg, Denmark","latitude":"55.751574","id":"5818"},{"longitude":"-3.050744","name":"Blackpool, United Kingdom","latitude":"53.808689","id":"8408"},{"longitude":"-83.771474","name":"Bluefields, Nicaragua","latitude":"11.991787","id":"5920"},{"longitude":"145.623730","name":"Boat Harbour, Tasmania, Australia","latitude":"-40.950776","id":"7813"},{"longitude":"-80.088937","name":"Boca Raton, Florida, United States","latitude":"26.350304","id":"3563"},{"longitude":"7.166619","name":"Bonny, Nigeria","latitude":"4.433368","id":"5922"},{"longitude":"-3.010890","name":"Brean, United Kingdom","latitude":"51.293699","id":"5736"},{"longitude":"2.961920","name":"Bredene, Belgium","latitude":"51.246417","id":"8396"},{"longitude":"16.553181","name":"Breivika, Norway","latitude":"68.734993","id":"9671"},{"longitude":"-59.613354","name":"Bridgetown, Barbados","latitude":"13.098953","id":"4202"},{"longitude":"-0.137169","name":"Brighton, United Kingdom","latitude":"50.822584","id":"3170"},{"longitude":"1.439455","name":"Broadstairs, United Kingdom","latitude":"51.358850","id":"6033"},{"longitude":"-72.912288","name":"Brookhaven, New York, United States","latitude":"40.773169","id":"4512"},{"longitude":"151.273898","name":"Brookvale, Australia","latitude":"-33.761178","id":"5781"},{"longitude":"-4.544398","name":"Bude, United Kingdom","latitude":"50.828106","id":"4554"},{"longitude":"-76.666652","name":"Bull Bay, Jamaica","latitude":"17.949741","id":"7689"},{"longitude":"12.918779","name":"Bunkeflostand, Sweden","latitude":"55.556823","id":"8401"},{"longitude":"50.842783","name":"Bushehr, Iran","latitude":"28.969997","id":"9683"},{"longitude":"13.372327","name":"Cacuaco, Angola","latitude":"-8.776624","id":"5775"},{"longitude":"9.109404","name":"Cagliari, Italy","latitude":"39.215367","id":"3162"},{"longitude":"1.852847","name":"Calais, France","latitude":"50.952886","id":"4490"},{"longitude":"-66.878292","name":"Camuri, Venezuela","latitude":"10.606149","id":"5966"},{"longitude":"-86.767566","name":"Cancún, Mexico","latitude":"21.095660","id":"3842"},{"longitude":"-61.384828","name":"Canefield, Dominica","latitude":"15.303345","id":"8835"},{"longitude":"7.017344","name":"Cannes, France","latitude":"43.552878","id":"6279"},{"longitude":"18.421981","name":"Cape Town, South Africa","latitude":"-33.919086","id":"3921"},{"longitude":"-75.505679","name":"Cartagena, Colombia","latitude":"10.386704","id":"5693"},{"longitude":"-7.611113","name":"Casablanca, Morocco","latitude":"33.586984","id":"3256"},{"longitude":"-61.006822","name":"Castries, Saint Lucia","latitude":"13.994202","id":"4207"},{"longitude":"-75.525907","name":"Cat Island, Bahamas","latitude":"24.403303","id":"5784"},{"longitude":"15.067457","name":"Catania, Italy","latitude":"37.511603","id":"3214"},{"longitude":"-76.574447","name":"Caves Point, Bahamas","latitude":"24.424987","id":"5786"},{"longitude":"120.820174","name":"Cavite, Philippines","latitude":"14.286227","id":"5931"},{"longitude":"-52.321060","name":"Cayenne, French Guiana","latitude":"4.941325","id":"5575"},{"longitude":"1.493463","name":"Cayeux-sur-Mer, France","latitude":"50.178804","id":"6051"},{"longitude":"-79.877673","name":"Cayman Brac, Cayman Islands","latitude":"19.690346","id":"6048"},{"longitude":"60.629687","name":"Chabahar, Iran","latitude":"25.298251","id":"8849"},{"longitude":"-61.650803","name":"Chaguaramas, Trinidad and Tobago","latitude":"10.686157","id":"8838"},{"longitude":"103.987023","name":"Changi, Singapore","latitude":"1.389040","id":"5937"},{"longitude":"24.012217","name":"Chania, Greece","latitude":"35.511799","id":"5723"},{"longitude":"-71.645859","name":"Charlestown, Rhode Island, United States","latitude":"41.411930","id":"3580"},{"longitude":"80.243049","name":"Chennai, India","latitude":"13.063516","id":"4191"},{"longitude":"139.954690","name":"Chikura, Japan","latitude":"34.976637","id":"5885"},{"longitude":"121.395289","name":"Chongming, China","latitude":"31.619905","id":"5802"},{"longitude":"114.203081","name":"Chung Hom Kok, Hong Kong","latitude":"22.222100","id":"5856"},{"longitude":"11.796857","name":"Civitavecchia, Italy","latitude":"42.091146","id":"7751"},{"longitude":"-2.399937","name":"Clair, United Kingdom","latitude":"60.749930","id":"10354"},{"longitude":"-74.966201","name":"Clarence Town, Bahamas","latitude":"23.098376","id":"10360"},{"longitude":"-6.197919","name":"Clonshaugh,Ireland","latitude":"53.410053","id":"10313"},{"longitude":"76.269541","name":"Cochin, India","latitude":"9.938075","id":"4322"},{"longitude":"-74.530272","name":"Cockburn Town, Bahamas","latitude":"24.052552","id":"10364"},{"longitude":"-6.676211","name":"Coleraine, United Kingdom","latitude":"55.130782","id":"9038"},{"longitude":"79.872019","name":"Colombo, Sri Lanka","latitude":"6.926774","id":"3887"},{"longitude":"-79.900009","name":"Colón, Panama","latitude":"9.353724","id":"6093"},{"longitude":"-13.703835","name":"Conakry, Guinea","latitude":"9.513540","id":"4208"},{"longitude":"-66.077959","name":"Condado Beach, PR, United States","latitude":"18.459906","id":"6084"},{"longitude":"-6.087192","name":"Conil, Spain","latitude":"36.276545","id":"5944"},{"longitude":"19.919550","name":"Corfu, Greece","latitude":"39.619323","id":"6024"},{"longitude":"2.439909","name":"Cotonou, Benin","latitude":"6.356577","id":"3315"},{"longitude":"91.994923","name":"Cox’s Bazar, Bangladesh","latitude":"21.429245","id":"6299"},{"longitude":"-74.194980","name":"Crooked Island, Bahamas","latitude":"22.629670","id":"5782"},{"longitude":"-76.574447","name":"Crown Haven, Bahamas","latitude":"24.424987","id":"8355"},{"longitude":"-76.787668","name":"Current, Bahamas","latitude":"25.407773","id":"5787"},{"longitude":"120.389715","name":"Currimao, Philippines","latitude":"16.582774","id":"8536"},{"longitude":"-6.292734","name":"Cádiz, Spain","latitude":"36.529520","id":"4374"},{"longitude":"118.300968","name":"Dadeng Island, China","latitude":"24.556694","id":"10368"},{"longitude":"122.949979","name":"Daet, Philippines","latitude":"14.116573","id":"10355"},{"longitude":"-17.451925","name":"Dakar, Senegal","latitude":"14.686669","id":"4180"},{"longitude":"108.214811","name":"Danang, Vietnam","latitude":"16.051528","id":"5986"},{"longitude":"39.269697","name":"Dar Es Salaam, Tanzania","latitude":"-6.823198","id":"4182"},{"longitude":"22.639228","name":"Darnah, Libya","latitude":"32.763612","id":"7873"},{"longitude":"-3.578377","name":"Dartmouth, United Kingdom","latitude":"50.351771","id":"10381"},{"longitude":"52.865977","name":"Das Island, United Arab Emirates","latitude":"25.152590","id":"6020"},{"longitude":"114.184008","name":"Deep Water Bay, Hong Kong","latitude":"22.249405","id":"5853"},{"longitude":"-3.027555","name":"Deeside Clwyd,United Kingdom","latitude":"53.201750","id":"10338"},{"longitude":"72.955573","name":"Dhangethi, Maldives","latitude":"3.608089","id":"10813"},{"longitude":"56.258046","name":"Diba, Oman","latitude":"25.616979","id":"10579"},{"longitude":"1.077510","name":"Dieppe, France","latitude":"49.923019","id":"5831"},{"longitude":"43.148039","name":"Djibouti City, Djibouti","latitude":"11.594657","id":"4177"},{"longitude":"51.519390","name":"Doha, Qatar","latitude":"25.294336","id":"3867"},{"longitude":"9.706303","name":"Douala, Cameroon","latitude":"4.047180","id":"4210"},{"longitude":"1.317585","name":"Dover, United Kingdom","latitude":"51.125552","id":"6086"},{"longitude":"12.670222","name":"Dragor, Denmark","latitude":"55.593565","id":"8400"},{"longitude":"2.685104","name":"Draupner, Norway","latitude":"58.922490","id":"7648"},{"longitude":"55.308487","name":"Dubai, United Arab Emirates","latitude":"25.269340","id":"3270"},{"longitude":"-6.248262","name":"Dublin, Ireland","latitude":"53.348014","id":"3077"},{"longitude":"18.106465","name":"Dubrovnik, Croatia","latitude":"42.641868","id":"6043"},{"longitude":"101.447640","name":"Dumai, Indonesia","latitude":"1.665304","id":"7311"},{"longitude":"1.439354","name":"Dumpton Gap, United Kingdom","latitude":"51.358549","id":"8397"},{"longitude":"-75.733457","name":"Duncan Town, Bahamas","latitude":"22.183250","id":"10361"},{"longitude":"-3.346182","name":"Dunnet Bay, United Kingdom","latitude":"58.615306","id":"5746"},{"longitude":"19.450041","name":"Durres, Albania","latitude":"41.316663","id":"6025"},{"longitude":"27.866667","name":"East London, South Africa","latitude":"-32.983281","id":"9248"},{"longitude":"4.616394","name":"Egmond, Netherlands","latitude":"52.616395","id":"8409"},{"longitude":"-78.802882","name":"Eight-Mile Rock, Bahamas","latitude":"26.539633","id":"5783"},{"longitude":"3.210026","name":"Ekofisk, Norway","latitude":"56.549146","id":"7649"},{"longitude":"5.734200","name":"El Djemila, Algeria","latitude":"36.313387","id":"5774"},{"longitude":"-15.699976","name":"El Goro,Canary Islands, Spain","latitude":"27.999558","id":"5720"},{"longitude":"-16.538606","name":"El Médano,Canary Islands, Spain","latitude":"28.046639","id":"5722"},{"longitude":"147.156335","name":"Ela Beach, Papua New Guinea","latitude":"-9.480235","id":"8350"},{"longitude":"140.061100","name":"Emi, Japan","latitude":"35.062368","id":"5894"},{"longitude":"-5.145865","name":"Estepona, Spain","latitude":"36.427125","id":"5943"},{"longitude":"73.070817","name":"Eydhafushi, Maldives","latitude":"5.103249","id":"10812"},{"longitude":"120.662165","name":"Fangshan, Taiwan","latitude":"22.249204","id":"5980"},{"longitude":"19.055321","name":"Farosund, Sweden","latitude":"57.863008","id":"7412"},{"longitude":"-124.099840","name":"Florence, Oregon, United States","latitude":"43.982131","id":"8539"},{"longitude":"-48.549530","name":"Florianópolis, Brazil","latitude":"-27.597030","id":"3359"},{"longitude":"-79.546748","name":"Fort Amador, Panama","latitude":"8.934107","id":"5925"},{"longitude":"-38.542979","name":"Fortaleza, Brazil","latitude":"-3.718838","id":"3347"},{"longitude":"146.850055","name":"Four Mile Bluff, Australia","latitude":"-41.033294","id":"10796"},{"longitude":"-13.238091","name":"Freetown, Sierra Leone","latitude":"8.485379","id":"4212"},{"longitude":"-77.844590","name":"Fresh Creek, Bahamas","latitude":"24.689807","id":"10358"},{"longitude":"56.333737","name":"Fujairah, United Arab Emirates","latitude":"25.121671","id":"5962"},{"longitude":"130.401687","name":"Fukuoka, Japan","latitude":"33.590296","id":"4059"},{"longitude":"-16.905068","name":"Funchal, Portugal","latitude":"32.647263","id":"5935"},{"longitude":"-6.928132","name":"Funningsfjordur, Faeroe Islands","latitude":"62.244086","id":"5725"},{"longitude":"73.426889","name":"Fuvahmulah, Maldives","latitude":"-0.298361","id":"10817"},{"longitude":"119.303230","name":"Fuzhou, China","latitude":"26.071129","id":"8620"},{"longitude":"73.455499","name":"Gahdhoo, Maldives","latitude":"0.288801","id":"10815"},{"longitude":"73.544643","name":"Gan, Maldives","latitude":"1.918580","id":"10814"},{"longitude":"50.521144","name":"Ganaveh, Iran","latitude":"29.570811","id":"5990"},{"longitude":"14.966669","name":"Gedebak Odde, Denmark","latitude":"55.012627","id":"5994"},{"longitude":"11.928966","name":"Gedser, Denmark","latitude":"54.576346","id":"5820"},{"longitude":"-75.788017","name":"George Town, Bahamas","latitude":"23.516487","id":"10359"},{"longitude":"-58.154935","name":"Georgetown, Guyana","latitude":"6.804102","id":"3904"},{"longitude":"-5.347693","name":"Gibraltar, Gibraltar","latitude":"36.155981","id":"8948"},{"longitude":"33.236354","name":"Girne, Cyprus","latitude":"35.299080","id":"9661"},{"longitude":"19.499231","name":"Gjirin e Lalezit, Albania","latitude":"41.210654","id":"10178"},{"longitude":"-5.174526","name":"Goonhilly Downs, United Kingdom","latitude":"50.024811","id":"3292"},{"longitude":"-76.240661","name":"Governors Harbor, Bahamas","latitude":"25.196057","id":"10357"},{"longitude":"-15.396255","name":"Gran Canaria,Canary Islands, Spain","latitude":"27.964623","id":"5721"},{"longitude":"-2.201422","name":"Greve de Lecq, Jersey","latitude":"49.247918","id":"10375"},{"longitude":"-22.444860","name":"Grindavik, Iceland","latitude":"63.846158","id":"10385"},{"longitude":"-120.621440","name":"Grover Beach, California, United States","latitude":"35.120592","id":"5748"},{"longitude":"118.189037","name":"Guanyin Mountain, China","latitude":"24.493952","id":"10369"},{"longitude":"118.307092","name":"Guningtou, Taiwan","latitude":"24.476184","id":"10366"},{"longitude":"34.998743","name":"Haifa, Israel","latitude":"32.811396","id":"3905"},{"longitude":"-70.161842","name":"Haina, Dominican Republic","latitude":"18.699027","id":"10120"},{"longitude":"-81.166789","name":"Half Moon Bay, Cayman Islands","latitude":"19.282977","id":"5799"},{"longitude":"-63.573962","name":"Halifax, Nova Scotia, Canada","latitude":"44.645788","id":"3640"},{"longitude":"52.420260","name":"Halul Island, Qatar","latitude":"25.668578","id":"6019"},{"longitude":"22.968195","name":"Hangö, Finland","latitude":"59.823260","id":"7694"},{"longitude":"22.302129","name":"Haradsholm, Finland","latitude":"60.301000","id":"9104"},{"longitude":"-122.302165","name":"Harbour Pointe, Washington, United States","latitude":"47.886272","id":"3641"},{"longitude":"-76.716896","name":"Harbour View, Jamaica","latitude":"17.949741","id":"9600"},{"longitude":"-2.529486","name":"Havelet Bay, Guernsey","latitude":"49.451000","id":"10376"},{"longitude":"-134.741789","name":"Hawk Inlet, Alaska, United States","latitude":"58.128129","id":"8552"},{"longitude":"-78.736827","name":"Hawksbill, Bahamas","latitude":"26.516846","id":"5785"},{"longitude":"12.695820","name":"Helsingborg, Sweden","latitude":"56.043799","id":"3268"},{"longitude":"24.932463","name":"Helsingfors, Finland","latitude":"60.171100","id":"9103"},{"longitude":"12.592121","name":"Helsingør, Denmark","latitude":"56.030448","id":"6065"},{"longitude":"24.932463","name":"Helsinki, Finland","latitude":"60.171100","id":"3064"},{"longitude":"-118.399530","name":"Hermosa Beach, California, United States","latitude":"33.862244","id":"4966"},{"longitude":"-2.975002","name":"Highbridge, United Kingdom","latitude":"51.222224","id":"5745"},{"longitude":"12.300799","name":"Hillerød, Denmark","latitude":"55.927853","id":"5992"},{"longitude":"-123.811178","name":"Hillsboro, Oregon, United States","latitude":"45.824830","id":"3649"},{"longitude":"73.089188","name":"Hithadhoo, Maldives","latitude":"-0.606046","id":"10816"},{"longitude":"9.995618","name":"Hjørring, Denmark","latitude":"57.456140","id":"5821"},{"longitude":"-80.160211","name":"Hollywood, Florida, United States","latitude":"26.010194","id":"3650"},{"longitude":"-4.630379","name":"Holyhead, United Kingdom","latitude":"53.306052","id":"6035"},{"longitude":"-151.544271","name":"Homer, Alaska, United States","latitude":"59.646378","id":"8392"},{"longitude":"159.948316","name":"Honiara, Solomon Islands","latitude":"-9.430342","id":"10892"},{"longitude":"-70.050011","name":"Hudishibana, Aruba","latitude":"12.616594","id":"10790"},{"longitude":"73.540226","name":"Hulhumale, Maldives","latitude":"4.211915","id":"9215"},{"longitude":"27.985324","name":"Igneada, Turkey","latitude":"41.884149","id":"6058"},{"longitude":"4.612780","name":"Ijmuiden, Netherlands","latitude":"52.460896","id":"10414"},{"longitude":"145.729538","name":"Inverloch, Australia","latitude":"-38.633448","id":"7860"},{"longitude":"141.315432","name":"Ishikari, Japan","latitude":"43.171207","id":"7834"},{"longitude":"-66.016873","name":"Isla Verde, Puerto Rico, United States","latitude":"18.441736","id":"5773"},{"longitude":"-73.655953","name":"Island Park, New York, United States","latitude":"40.600303","id":"9763"},{"longitude":"28.986079","name":"Istanbul, Turkey","latitude":"41.040599","id":"3221"},{"longitude":"-81.655723","name":"Jacksonville, Florida, United States","latitude":"30.331743","id":"3655"},{"longitude":"106.827868","name":"Jakarta, Indonesia","latitude":"-6.171889","id":"3012"},{"longitude":"-5.704668","name":"Jamestown, Saint Helena","latitude":"-15.922152","id":"10722"},{"longitude":"-61.554883","name":"Jarry, Guadeloupe","latitude":"16.242965","id":"8836"},{"longitude":"57.797376","name":"Jask, Iran","latitude":"25.681226","id":"6031"},{"longitude":"39.182762","name":"Jeddah, Saudi Arabia","latitude":"21.481246","id":"4361"},{"longitude":"-134.406848","name":"Juneau, Alaska, United States","latitude":"58.299490","id":"4816"},{"longitude":"-158.130545","name":"Kahe Point, Hawaii, United States","latitude":"21.354056","id":"5753"},{"longitude":"67.028539","name":"Karachi, Pakistan","latitude":"24.889376","id":"3259"},{"longitude":"103.904706","name":"Katong, Singapore","latitude":"1.309333","id":"5939"},{"longitude":"18.845312","name":"Katthammarsvik, Sweden","latitude":"57.431044","id":"10365"},{"longitude":"4.396447","name":"Katwijk, Netherlands","latitude":"52.205211","id":"3283"},{"longitude":"-155.831387","name":"Kawaihae, Hawaii, United States","latitude":"20.039893","id":"8973"},{"longitude":"45.165913","name":"Kaweni, Mayotte","latitude":"-12.817090","id":"10123"},{"longitude":"-158.151726","name":"Keawaula, Hawaii, United States","latitude":"21.425732","id":"5754"},{"longitude":"11.089934","name":"Kelibia, Tunisia","latitude":"36.849352","id":"6015"},{"longitude":"-151.259775","name":"Kenai, Alaska, United States","latitude":"60.552871","id":"8393"},{"longitude":"128.620826","name":"Keoje, Korea,Rep.","latitude":"34.880668","id":"5975"},{"longitude":"-131.647819","name":"Ketchikan, Alaska, United States","latitude":"55.341895","id":"8551"},{"longitude":"50.312038","name":"Khark Island, Iran","latitude":"29.245759","id":"10603"},{"longitude":"56.246802","name":"Khasab, Oman","latitude":"26.181353","id":"7645"},{"longitude":"-6.584106","name":"Kilmore Quay, Ireland","latitude":"52.174593","id":"5863"},{"longitude":"-61.715352","name":"Kingston, Grenada","latitude":"12.185233","id":"6077"},{"longitude":"-76.792186","name":"Kingston, Jamaica","latitude":"17.992204","id":"3272"},{"longitude":"-61.254677","name":"Kingstown, Saint Vincent and the Grenadines","latitude":"13.187895","id":"4219"},{"longitude":"131.032015","name":"Kita-kyushu, Japan","latitude":"33.839256","id":"5895"},{"longitude":"140.750958","name":"Kitaibaraki, Japan","latitude":"36.801769","id":"5703"},{"longitude":"-152.395249","name":"Kodiak, Alaska, United States","latitude":"57.794143","id":"8394"},{"longitude":"19.923967","name":"Kokkini, Greece","latitude":"39.753842","id":"7730"},{"longitude":"15.574912","name":"Kolobrzeg, Poland","latitude":"54.172390","id":"5933"},{"longitude":"26.883579","name":"Kotka, Finland","latitude":"60.501071","id":"4552"},{"longitude":"9.910389","name":"Kribi, Cameroon","latitude":"2.932888","id":"10095"},{"longitude":"7.996215","name":"Kristiansand, Norway","latitude":"58.150917","id":"3131"},{"longitude":"13.016757","name":"Kristinelund, Sweden","latitude":"56.516721","id":"10739"},{"longitude":"103.466719","name":"Kuala Tungkal, Indonesia","latitude":"-0.816457","id":"10283"},{"longitude":"103.322563","name":"Kuantan, Malaysia","latitude":"3.815086","id":"5903"},{"longitude":"73.071420","name":"Kulhudhufushi, Maldives","latitude":"6.622502","id":"10811"},{"longitude":"12.076233","name":"Kungsbacka, Sweden","latitude":"57.487461","id":"10605"},{"longitude":"47.974734","name":"Kuwait City, Kuwait","latitude":"29.374053","id":"3871"},{"longitude":"167.424318","name":"Kwajalein, Republic of Marshall Islands","latitude":"9.189793","id":"7879"},{"longitude":"22.738008","name":"Kärdla, Estonia","latitude":"59.000892","id":"5828"},{"longitude":"5.524392","name":"Kårstø, Norway","latitude":"59.279264","id":"5923"},{"longitude":"-66.889636","name":"La Guaira, Venezuela","latitude":"10.603137","id":"8352"},{"longitude":"-17.765232","name":"La Palma,Canary Islands, Spain","latitude":"28.663215","id":"7776"},{"longitude":"5.878155","name":"La Seyne, France","latitude":"43.102944","id":"7766"},{"longitude":"3.423247","name":"Lagos, Nigeria","latitude":"6.438895","id":"3280"},{"longitude":"118.289825","name":"Lake Ci, Taiwan","latitude":"24.455605","id":"10367"},{"longitude":"-2.533451","name":"Lancresse Bay,Guernsey","latitude":"49.503402","id":"10380"},{"longitude":"-20.142290","name":"Landeyjar, Iceland","latitude":"63.642172","id":"8994"},{"longitude":"-20.666760","name":"Landeyjasandur, Iceland","latitude":"63.733123","id":"8544"},{"longitude":"-3.459920","name":"Lannion, France","latitude":"48.730224","id":"5837"},{"longitude":"113.948400","name":"Lantau Island, Hong Kong","latitude":"22.271490","id":"5852"},{"longitude":"-56.695512","name":"Las Toninas, Argentina","latitude":"-36.472523","id":"3330"},{"longitude":"-61.094259","name":"Le Lamentin, Martinique","latitude":"14.615495","id":"5905"},{"longitude":"-134.747310","name":"Lena Point, Alaska, United States","latitude":"58.550958","id":"5765"},{"longitude":"9.454332","name":"Libreville, Gabon","latitude":"0.394308","id":"4221"},{"longitude":"21.011256","name":"Liepaja, Latvia","latitude":"56.508188","id":"5310"},{"longitude":"9.208485","name":"Limbe, Cameroon","latitude":"4.014555","id":"9846"},{"longitude":"-9.150142","name":"Lisbon, Portugal","latitude":"38.725681","id":"3146"},{"longitude":"28.499906","name":"Logi, Russia","latitude":"59.799870","id":"9102"},{"longitude":"1.227840","name":"Lome, Togo","latitude":"6.125989","id":"3317"},{"longitude":"15.648797","name":"Longyearbyen,Svalbard, Norway","latitude":"78.218528","id":"9672"},{"longitude":"-118.245336","name":"Los Angeles, California, United States","latitude":"34.053380","id":"3678"},{"longitude":"1.729221","name":"Lowestoft, United Kingdom","latitude":"52.471336","id":"3084"},{"longitude":"13.234998","name":"Luanda, Angola","latitude":"-8.812863","id":"4190"},{"longitude":"-76.874302","name":"Lurin, Peru","latitude":"-12.278515","id":"5930"},{"longitude":"-6.165895","name":"Lusk, Ireland","latitude":"53.526301","id":"10907"},{"longitude":"10.514617","name":"Lyngsa, Denmark","latitude":"57.244826","id":"10320"},{"longitude":"-70.950280","name":"Lynn, Massachusetts, United States","latitude":"42.463681","id":"3683"},{"longitude":"-122.315817","name":"Lynnwood, Washington, United States","latitude":"47.824032","id":"5770"},{"longitude":"8.937140","name":"L’Île-Rousse, France","latitude":"42.636547","id":"7765"},{"longitude":"8.505678","name":"Maade, Denmark","latitude":"55.458645","id":"3083"},{"longitude":"145.784851","name":"Madang, Papua New Guinea","latitude":"-5.233674","id":"8558"},{"longitude":"-64.937114","name":"Magen's Bay, VI, United States","latitude":"18.372971","id":"5758"},{"longitude":"-66.960358","name":"Maiquetia, Venezuela","latitude":"10.599423","id":"5968"},{"longitude":"171.185608","name":"Majuro, Republic of Marshall Islands","latitude":"7.116204","id":"9060"},{"longitude":"-158.206036","name":"Makaha, Hawaii, United States","latitude":"21.460265","id":"5760"},{"longitude":"8.783347","name":"Malabo, Equatorial Guinea","latitude":"3.749835","id":"4224"},{"longitude":"-54.950189","name":"Maldonado, Uruguay","latitude":"-34.900367","id":"5963"},{"longitude":"73.499971","name":"Male, Maldives","latitude":"4.166440","id":"4251"},{"longitude":"50.575855","name":"Manama, Bahrain","latitude":"26.229037","id":"4188"},{"longitude":"-74.047060","name":"Manasquan, New Jersey, United States","latitude":"40.123365","id":"3686"},{"longitude":"-123.687000","name":"Manchester, California, United States","latitude":"38.969219","id":"3687"},{"longitude":"-81.053804","name":"Mancora, Peru","latitude":"-4.154015","id":"8484"},{"longitude":"28.582725","name":"Mangalia, Romania","latitude":"43.817196","id":"6059"},{"longitude":"-80.716203","name":"Manta, Ecuador","latitude":"-0.949971","id":"8918"},{"longitude":"32.580627","name":"Maputo, Mozambique","latitude":"-25.968556","id":"4252"},{"longitude":"-79.753544","name":"Maria Chiquita, Panama","latitude":"9.437346","id":"5928"},{"longitude":"19.937820","name":"Mariehamn, Finland","latitude":"60.113880","id":"5830"},{"longitude":"28.253658","name":"Marmaris, Turkey","latitude":"36.855275","id":"5959"},{"longitude":"5.372607","name":"Marseille, France","latitude":"43.293177","id":"3210"},{"longitude":"139.816960","name":"Maruyama, Japan","latitude":"35.037472","id":"5887"},{"longitude":"-73.683058","name":"Matthew Town, Bahamas","latitude":"20.950501","id":"9581"},{"longitude":"-73.064123","name":"Mayaguana, Bahamas","latitude":"22.401591","id":"10362"},{"longitude":"-1.323791","name":"Maywick, United Kingdom","latitude":"60.003956","id":"8684"},{"longitude":"12.591318","name":"Mazara del Vallo, Italy","latitude":"37.650037","id":"3215"},{"longitude":"-106.421885","name":"Mazatlán, Mexico","latitude":"23.199465","id":"3470"},{"longitude":"147.071207","name":"McGaurans Beach, Australia","latitude":"-38.443617","id":"10797"},{"longitude":"98.676063","name":"Medan, Indonesia","latitude":"3.751742","id":"5861"},{"longitude":"102.220919","name":"Melaka, Malaysia","latitude":"2.273146","id":"6300"},{"longitude":"18.445772","name":"Melkbosstrand, South Africa","latitude":"-33.727247","id":"5941"},{"longitude":"24.276636","name":"Meremöisa, Estonia","latitude":"59.400832","id":"5999"},{"longitude":"34.633336","name":"Mersin, Turkey","latitude":"36.799962","id":"9080"},{"longitude":"103.849895","name":"Mersing, Malaysia","latitude":"2.295532","id":"5902"},{"longitude":"12.244080","name":"Mestre, Italy","latitude":"45.495863","id":"6016"},{"longitude":"-80.226416","name":"Miami, Florida, United States","latitude":"25.788640","id":"3696"},{"longitude":"16.062290","name":"Mielno,Poland","latitude":"54.259927","id":"5993"},{"longitude":"-53.965144","name":"Milton, Newfoundland and Labrador, Canada","latitude":"48.864340","id":"8542"},{"longitude":"-66.082878","name":"Miramar, Puerto Rico, United States","latitude":"18.453381","id":"5762"},{"longitude":"15.094762","name":"Misurata, Libya","latitude":"32.374312","id":"7867"},{"longitude":"139.620703","name":"Miura, Japan","latitude":"35.144082","id":"5889"},{"longitude":"39.672850","name":"Mombasa, Kenya","latitude":"-4.053227","id":"5896"},{"longitude":"7.417686","name":"Monaco, Monaco","latitude":"43.732570","id":"3255"},{"longitude":"-10.797187","name":"Monrovia, Liberia","latitude":"6.300160","id":"4178"},{"longitude":"7.427223","name":"Monte Carlo, Monaco","latitude":"43.739697","id":"6028"},{"longitude":"-77.816733","name":"Morant Point, Jamaica","latitude":"18.349481","id":"8685"},{"longitude":"43.243406","name":"Moroni, Comoros","latitude":"-11.700689","id":"4227"},{"longitude":"-120.847209","name":"Morro Bay, California, United States","latitude":"35.366740","id":"5751"},{"longitude":"14.488125","name":"Msida, Malta","latitude":"35.898690","id":"4058"},{"longitude":"79.866799","name":"Mt. Lavinia, Sri Lanka","latitude":"6.832712","id":"5949"},{"longitude":"31.757858","name":"Mtunzini, South Africa","latitude":"-28.950645","id":"5942"},{"longitude":"12.349888","name":"Muanda, Congo,Dem. Rep.","latitude":"-5.933370","id":"9426"},{"longitude":"72.875866","name":"Mumbai, India","latitude":"19.075779","id":"3212"},{"longitude":"2.333449","name":"Murdoch, Norway","latitude":"54.266352","id":"7651"},{"longitude":"58.591033","name":"Muscat, Oman","latitude":"23.615167","id":"4225"},{"longitude":"35.094713","name":"Nahariyya, Israel","latitude":"33.011266","id":"5866"},{"longitude":"132.874012","name":"Nakhodka, Russia","latitude":"42.812325","id":"5362"},{"longitude":"121.191404","name":"Nanhui, China","latitude":"30.306345","id":"5804"},{"longitude":"-64.597254","name":"Nanny Cay, Virgin Islands (U.K.)","latitude":"18.414732","id":"10121"},{"longitude":"138.242092","name":"Naoetsu, Japan","latitude":"37.169686","id":"5529"},{"longitude":"-152.329145","name":"Narrow Cape, Alaska, United States","latitude":"57.426828","id":"8395"},{"longitude":"-77.340247","name":"Nassau, Bahamas","latitude":"25.067060","id":"4230"},{"longitude":"120.695794","name":"Nasugbu, Philippines","latitude":"14.317347","id":"9603"},{"longitude":"-35.210942","name":"Natal, Brazil","latitude":"-5.794435","id":"3354"},{"longitude":"-123.940125","name":"Nedonna Beach, Oregon, United States","latitude":"45.643733","id":"3711"},{"longitude":"-59.612751","name":"Needham’s Point, Barbados","latitude":"13.078775","id":"6183"},{"longitude":"141.859227","name":"Nevelsk, Russia","latitude":"46.684442","id":"8366"},{"longitude":"-60.129592","name":"New Victoria, NS, Canada","latitude":"46.252879","id":"9374"},{"longitude":"-74.005952","name":"New York, New York, United States","latitude":"40.714342","id":"3715"},{"longitude":"-151.291698","name":"Nikiski, Alaska, United States","latitude":"60.689798","id":"8540"},{"longitude":"139.255396","name":"Ninomiya, Japan","latitude":"35.299381","id":"5890"},{"longitude":"7.201855","name":"Norden, Germany","latitude":"53.595467","id":"5840"},{"longitude":"157.199928","name":"Noro, Soloman Islands","latitude":"-8.241061","id":"10984"},{"longitude":"18.701357","name":"Norrtalge, Sweden","latitude":"59.759615","id":"6171"},{"longitude":"-80.162369","name":"North Miami Beach, Florida, United States","latitude":"25.932896","id":"5772"},{"longitude":"-72.805276","name":"Northport, New York, United States","latitude":"40.818744","id":"9762"},{"longitude":"-15.978298","name":"Nouakchott, Mauritania","latitude":"18.083857","id":"4192"},{"longitude":"166.439122","name":"Noumea, New Caledonia","latitude":"-22.303336","id":"5704"},{"longitude":"37.772831","name":"Novorossiysk, Russia","latitude":"44.723588","id":"5117"},{"longitude":"-175.200006","name":"Nuku'alofa, Tonga","latitude":"-21.133329","id":"10315"},{"longitude":"-51.729983","name":"Nuuk, Greenland","latitude":"64.181149","id":"8488"},{"longitude":"39.700055","name":"Nyali, Kenya","latitude":"-4.050416","id":"10122"},{"longitude":"17.946549","name":"Nynashamn, Sweden","latitude":"58.902914","id":"5951"},{"longitude":"-158.000042","name":"Oahu, Hawaii, United States","latitude":"21.438883","id":"5769"},{"longitude":"-77.103234","name":"Ocho Rios, Jamaica","latitude":"18.398570","id":"7688"},{"longitude":"30.677495","name":"Odessa, Ukraine","latitude":"46.488989","id":"5355"},{"longitude":"127.680604","name":"Okinawa, Japan","latitude":"26.212373","id":"5886"},{"longitude":"9.486858","name":"Olbia, Italy","latitude":"40.922544","id":"8592"},{"longitude":"-0.641964","name":"Oran, Algeria","latitude":"35.701630","id":"8359"},{"longitude":"-70.026470","name":"Oranjestad, Aruba","latitude":"12.524640","id":"4233"},{"longitude":"2.912630","name":"Ostend, Belgium","latitude":"51.231159","id":"5789"},{"longitude":"10.600950","name":"Osterby, Denmark","latitude":"55.858285","id":"10322"},{"longitude":"18.485726","name":"Otranto, Italy","latitude":"40.148060","id":"6027"},{"longitude":"151.244986","name":"Oxford Falls, Australia","latitude":"-33.737386","id":"5778"},{"longitude":"-4.169604","name":"Oxwich Bay, United Kingdom","latitude":"51.557817","id":"3145"},{"longitude":"121.383243","name":"Pa Li, Taiwan","latitude":"25.149980","id":"5983"},{"longitude":"151.228623","name":"Paddington, Australia","latitude":"-33.882144","id":"5779"},{"longitude":"-64.788692","name":"Paget, Bermuda","latitude":"32.280551","id":"9069"},{"longitude":"-170.695703","name":"Pago Pago, American Samoa","latitude":"-14.276512","id":"9070"},{"longitude":"13.358373","name":"Palermo, Italy","latitude":"38.121453","id":"3177"},{"longitude":"2.605246","name":"Palma, Spain","latitude":"39.552366","id":"4723"},{"longitude":"-23.521257","name":"Palmarejo, Cape Verde","latitude":"14.923080","id":"10725"},{"longitude":"-79.536709","name":"Panama City, Panama","latitude":"8.964424","id":"3334"},{"longitude":"-149.441068","name":"Papenoo, French Polynesia","latitude":"-17.512379","id":"8974"},{"longitude":"32.491986","name":"Paphos, Cyprus","latitude":"34.916405","id":"9246"},{"longitude":"22.301025","name":"Pargas, Finland","latitude":"60.306622","id":"6083"},{"longitude":"14.992167","name":"Pedersker, Denmark","latitude":"55.030897","id":"5822"},{"longitude":"-2.537617","name":"Pembroke, United Kingdom","latitude":"49.509526","id":"10373"},{"longitude":"100.362961","name":"Penang, Malaysia","latitude":"5.353613","id":"3307"},{"longitude":"-4.338706","name":"Penmarch, France","latitude":"47.811283","id":"3119"},{"longitude":"-63.645638","name":"Pennant Point,NS,Canada","latitude":"44.434072","id":"3734"},{"longitude":"33.603568","name":"Pentaskhinos, Cyprus","latitude":"34.828466","id":"5812"},{"longitude":"115.857254","name":"Perth, Australia","latitude":"-31.953413","id":"3239"},{"longitude":"-132.970063","name":"Petersburg, Alaska, United States","latitude":"56.807642","id":"8550"},{"longitude":"0.366722","name":"Pevensey Bay, United Kingdom","latitude":"50.819071","id":"6050"},{"longitude":"144.694751","name":"Piti, Guam","latitude":"13.464662","id":"5973"},{"longitude":"-2.768055","name":"Plerin, France","latitude":"48.534771","id":"5836"},{"longitude":"-62.215729","name":"Plymouth, Montserrat","latitude":"16.706551","id":"4355"},{"longitude":"159.070234","name":"Pohnpei, Federated States of Micronesia","latitude":"7.786486","id":"9062"},{"longitude":"11.863614","name":"Point Noire, Congo,Rep.","latitude":"-4.779123","id":"5971"},{"longitude":"-61.533099","name":"Pointe-a-Pitre, Guadeloupe","latitude":"16.241058","id":"4906"},{"longitude":"-25.668781","name":"Ponta Delgada, Portugal","latitude":"37.739281","id":"5945"},{"longitude":"25.569918","name":"Port Elizabeth, South Africa","latitude":"-33.932638","id":"8847"},{"longitude":"8.781641","name":"Port Gentil, Gabon","latitude":"-0.720989","id":"10818"},{"longitude":"-74.840567","name":"Port Nelson, Bahamas","latitude":"23.652109","id":"10363"},{"longitude":"-61.516686","name":"Port of Spain, Trinidad and Tobago","latitude":"10.649817","id":"4236"},{"longitude":"37.219700","name":"Port Sudan, Sudan","latitude":"19.615558","id":"5950"},{"longitude":"168.322880","name":"Port Vila, Vanuatu","latitude":"-17.730419","id":"9086"},{"longitude":"-72.343146","name":"Port-au-Prince, Haiti","latitude":"18.542725","id":"3878"},{"longitude":"-5.654525","name":"Porthcurno, United Kingdom","latitude":"50.043081","id":"3082"},{"longitude":"41.667635","name":"Poti, Georgia","latitude":"42.150776","id":"5530"},{"longitude":"-4.227829","name":"Pottington, United Kingdom","latitude":"51.119830","id":"5744"},{"longitude":"14.853834","name":"Pozzallo, Italy","latitude":"36.733707","id":"8972"},{"longitude":"-23.521257","name":"Praia, Cape Verde","latitude":"14.923080","id":"4257"},{"longitude":"-72.120237","name":"Providenciales, Turks and Caicos Islands","latitude":"21.851071","id":"4258"},{"longitude":"-88.597215","name":"Puerto Barrios, Guatemala","latitude":"15.727178","id":"5848"},{"longitude":"-83.393919","name":"Puerto Cabezas, Nicaragua","latitude":"14.021607","id":"5921"},{"longitude":"-87.946056","name":"Puerto Cortes, Honduras","latitude":"15.844831","id":"5851"},{"longitude":"-83.776794","name":"Puerto Lempira, Honduras","latitude":"15.261283","id":"5692"},{"longitude":"-83.037697","name":"Puerto Limon, Costa Rica","latitude":"9.988570","id":"5810"},{"longitude":"-70.691232","name":"Puerto Plata, Dominican Republic","latitude":"19.799366","id":"5823"},{"longitude":"-90.822237","name":"Puerto San Jose, Guatemala","latitude":"13.934572","id":"5849"},{"longitude":"-62.473924","name":"Puerto Viejo, Venezuela","latitude":"10.722397","id":"5967"},{"longitude":"-68.438252","name":"Punta Cana, Dominican Republic","latitude":"18.621328","id":"5694"},{"longitude":"-80.914417","name":"Punta Carnero, Ecuador","latitude":"-2.272968","id":"5824"},{"longitude":"-70.204356","name":"Punto Fijo, Venezuela","latitude":"11.708596","id":"5965"},{"longitude":"128.999384","name":"Pusan, Korea,Rep.","latitude":"35.170083","id":"4183"},{"longitude":"11.212506","name":"Puttgarden, Germany","latitude":"54.496037","id":"5839"},{"longitude":"95.682028","name":"Pyapon, Myanmar","latitude":"16.282216","id":"5911"},{"longitude":"58.591033","name":"Qalhat, Oman","latitude":"23.615167","id":"10684"},{"longitude":"-46.035394","name":"Qaqortoq, Greenland","latitude":"60.718910","id":"8543"},{"longitude":"120.342634","name":"Qingdao, China","latitude":"36.087115","id":"6012"},{"longitude":"18.411942","name":"Ras Lanuf, Libya","latitude":"30.586725","id":"7869"},{"longitude":"-1.068206","name":"Redcar, United Kingdom","latitude":"54.613891","id":"3085"},{"longitude":"-118.387985","name":"Redondo Beach, California, United States","latitude":"33.844375","id":"4992"},{"longitude":"103.147690","name":"Rengit, Malaysia","latitude":"1.677150","id":"8970"},{"longitude":"12.431502","name":"Ribnitz, Germany","latitude":"54.243363","id":"5842"},{"longitude":"-76.574447","name":"Riding Point, Bahamas","latitude":"24.424987","id":"8354"},{"longitude":"-43.209557","name":"Rio de Janeiro, Brazil","latitude":"-22.903448","id":"3242"},{"longitude":"-72.952744","name":"Riohacha, Colombia","latitude":"11.482927","id":"5807"},{"longitude":"11.358669","name":"Rodbyhavn, Denmark","latitude":"54.663080","id":"5814"},{"longitude":"-60.988552","name":"Rodney Bay, Saint Lucia","latitude":"14.035661","id":"8837"},{"longitude":"-58.686583","name":"Rose Blanche, NL, Canada","latitude":"47.617637","id":"9375"},{"longitude":"-61.370724","name":"Roseau, Dominica","latitude":"15.251746","id":"4260"},{"longitude":"-6.358186","name":"Rota, Spain","latitude":"36.616957","id":"10400"},{"longitude":"10.516625","name":"Saeby, Denmark","latitude":"57.330858","id":"10606"},{"longitude":"35.386236","name":"Saida, Lebanon","latitude":"33.450157","id":"6047"},{"longitude":"-62.833409","name":"Saint Barthelemy, Guadeloupe","latitude":"17.900049","id":"7876"},{"longitude":"-63.073735","name":"Saint Maarten, Netherlands Antilles","latitude":"18.031054","id":"3188"},{"longitude":"-63.050094","name":"Saint Martin, Guadeloupe","latitude":"18.092792","id":"7875"},{"longitude":"55.279174","name":"Saint Paul, Réunion","latitude":"-21.000216","id":"5978"},{"longitude":"55.549917","name":"Sainte Marie, Réunion","latitude":"-20.897319","id":"9399"},{"longitude":"-2.558046","name":"Saints Bay, United Kingdom","latitude":"49.423294","id":"10374"},{"longitude":"103.704234","name":"Sakra Island, Singapore","latitude":"1.258838","id":"10307"},{"longitude":"-38.504631","name":"Salvador, Brazil","latitude":"-12.969979","id":"3342"},{"longitude":"35.999298","name":"Samandag, Turkey","latitude":"36.082297","id":"10382"},{"longitude":"-66.106669","name":"San Juan, Puerto Rico, United States","latitude":"18.465829","id":"4262"},{"longitude":"-120.662699","name":"San Luis Obispo, California, United States","latitude":"35.285025","id":"3772"},{"longitude":"-1.984436","name":"San Sebastián, Spain","latitude":"43.320783","id":"4496"},{"longitude":"-1.238663","name":"Sandwick, United Kingdom","latitude":"59.996026","id":"8683"},{"longitude":"146.119641","name":"Sandy Point, Australia","latitude":"-38.820168","id":"10799"},{"longitude":"-77.399525","name":"Sandy Point, Bahamas","latitude":"26.025151","id":"5788"},{"longitude":"-6.215436","name":"Sandymount, Ireland","latitude":"53.331450","id":"5865"},{"longitude":"13.234998","name":"Sangano, Angola","latitude":"-8.812863","id":"10727"},{"longitude":"6.532877","name":"Santana, Sao Tome and Principe","latitude":"0.859600","id":"10094"},{"longitude":"-69.983304","name":"Santo Domingo, Dominican Republic","latitude":"18.499960","id":"4242"},{"longitude":"-46.328071","name":"Santos, Brazil","latitude":"-23.961926","id":"3411"},{"longitude":"100.066118","name":"Satun, Thailand","latitude":"6.613166","id":"5956"},{"longitude":"8.483793","name":"Savona, Italy","latitude":"44.305577","id":"5880"},{"longitude":"-4.333436","name":"Schiehallion, United Kingdom","latitude":"60.333124","id":"10353"},{"longitude":"-9.107377","name":"Seixal, Portugal","latitude":"38.642259","id":"9058"},{"longitude":"-5.698745","name":"Sennen Cove, United Kingdom","latitude":"50.076109","id":"5742"},{"longitude":"2.971005","name":"Ses Covetes, Spain","latitude":"39.354604","id":"5948"},{"longitude":"-9.102760","name":"Sesimbra, Portugal","latitude":"38.442690","id":"5934"},{"longitude":"-149.443126","name":"Seward, Alaska, United States","latitude":"60.112173","id":"5755"},{"longitude":"-14.018046","name":"Seydisfjordur, Iceland","latitude":"65.251372","id":"5859"},{"longitude":"121.472487","name":"Shanghai, China","latitude":"31.247571","id":"3246"},{"longitude":"116.675506","name":"Shantou, China","latitude":"23.354563","id":"5803"},{"longitude":"136.874423","name":"Shima, Japan","latitude":"34.336772","id":"5883"},{"longitude":"126.391638","name":"Shindu-Ri, Korea,Rep.","latitude":"36.576300","id":"5977"},{"longitude":"-72.872234","name":"Shirley, New York, United States","latitude":"40.800273","id":"3783"},{"longitude":"-75.712376","name":"Siboney, Cuba","latitude":"19.963699","id":"8351"},{"longitude":"103.853007","name":"Singapore, Singapore","latitude":"1.293672","id":"3029"},{"longitude":"16.588316","name":"Sirt, Libya","latitude":"31.205308","id":"7868"},{"longitude":"-135.334372","name":"Sitka, Alaska, United States","latitude":"57.052887","id":"8554"},{"longitude":"1.620301","name":"Sizewell, United Kingdom","latitude":"52.207118","id":"8398"},{"longitude":"12.683272","name":"Skalvik, Sweden","latitude":"56.683163","id":"10323"},{"longitude":"-5.675054","name":"Skewjack, United Kingdom","latitude":"50.063560","id":"5741"},{"longitude":"39.725855","name":"Sochi, Russia","latitude":"43.615519","id":"5092"},{"longitude":"100.596963","name":"Songkhla, Thailand","latitude":"7.078459","id":"4265"},{"longitude":"49.478025","name":"Soroosh Platform, Iran","latitude":"29.072491","id":"10604"},{"longitude":"4.228399","name":"South Arne","latitude":"56.078332","id":"10780"},{"longitude":"-3.006373","name":"Southport, United Kingdom","latitude":"53.647969","id":"3324"},{"longitude":"-80.067705","name":"Spanish River Park, Florida, United States","latitude":"26.378011","id":"8357"},{"longitude":"-155.822051","name":"Spencer Beach, Hawaii, United States","latitude":"20.023128","id":"5752"},{"longitude":"100.930548","name":"Sri Racha, Thailand","latitude":"13.174444","id":"6014"},{"longitude":"-64.819410","name":"St. Croix, Virgin Islands, United States","latitude":"17.771855","id":"5750"},{"longitude":"-64.769518","name":"St. David’s, Bermuda","latitude":"32.312172","id":"5793"},{"longitude":"-61.711637","name":"St. George’s, Grenada","latitude":"12.187943","id":"4244"},{"longitude":"-1.945887","name":"St. Hilaire, France","latitude":"46.720180","id":"5834"},{"longitude":"-61.857951","name":"St. John’s, Antigua and Barbuda","latitude":"17.051480","id":"4239"},{"longitude":"-2.225916","name":"St. Ouens Bay, Jersey","latitude":"49.215694","id":"10379"},{"longitude":"14.415646","name":"St. Paul's Bay, Malta","latitude":"35.950389","id":"8561"},{"longitude":"-64.904438","name":"St. Thomas, Virgin Islands (U.S.)","latitude":"18.324484","id":"4359"},{"longitude":"0.708439","name":"St. Valéry, France","latitude":"49.860478","id":"5331"},{"longitude":"145.294060","name":"Stanley, Australia","latitude":"-40.760443","id":"7861"},{"longitude":"18.764601","name":"Stavsnas, Sweden","latitude":"59.822758","id":"5952"},{"longitude":"18.062897","name":"Stockholm, Sweden","latitude":"59.332168","id":"3063"},{"longitude":"32.530133","name":"Suez, Egypt","latitude":"29.972258","id":"5825"},{"longitude":"109.183242","name":"Sungai Kakap, Indonesia","latitude":"-0.067070","id":"9094"},{"longitude":"-1.649997","name":"Surville, France","latitude":"49.283254","id":"10378"},{"longitude":"178.437446","name":"Suva, Fiji","latitude":"-18.123834","id":"4268"},{"longitude":"21.082430","name":"Sventoji, Lithuania","latitude":"56.028340","id":"5311"},{"longitude":"14.528079","name":"Swakopmund, Namibia","latitude":"-22.678280","id":"9845"},{"longitude":"151.207040","name":"Sydney, Australia","latitude":"-33.869897","id":"3030"},{"longitude":"8.383407","name":"Sylt, Germany","latitude":"54.898487","id":"3142"},{"longitude":"113.561007","name":"Taipa, China","latitude":"22.156146","id":"5900"},{"longitude":"174.767909","name":"Takapuna, New Zealand","latitude":"-36.787938","id":"5918"},{"longitude":"24.752369","name":"Tallinn, Estonia","latitude":"59.436169","id":"3089"},{"longitude":"103.946567","name":"Tanah Merah, Singapore","latitude":"1.327202","id":"9135"},{"longitude":"144.809393","name":"Tanguisson Point, Guam","latitude":"13.549087","id":"3251"},{"longitude":"104.133186","name":"Tanjung Bemban, Indonesia","latitude":"1.173208","id":"9096"},{"longitude":"107.120897","name":"Tanjung Pakis, Indonesia","latitude":"-5.981455","id":"9095"},{"longitude":"121.462649","name":"Tanshui, Taiwan","latitude":"25.181300","id":"5982"},{"longitude":"35.897807","name":"Tartous, Syria","latitude":"34.891710","id":"6030"},{"longitude":"34.769661","name":"Tel Aviv, Israel","latitude":"32.044642","id":"3213"},{"longitude":"114.570597","name":"Telisai, Brunei","latitude":"4.703710","id":"10309"},{"longitude":"-16.522745","name":"Tenerife,Canary Islands, Spain","latitude":"28.292788","id":"7713"},{"longitude":"57.510069","name":"Terre Rouge, Mauritius","latitude":"-20.077862","id":"9400"},{"longitude":"-63.057221","name":"The Valley, Anguilla","latitude":"18.217372","id":"4195"},{"longitude":"8.703540","name":"Thisted, Denmark","latitude":"56.959126","id":"6054"},{"longitude":"1.613074","name":"Thorpeness, United Kingdom","latitude":"52.180817","id":"8399"},{"longitude":"-117.038185","name":"Tijuana, Mexico","latitude":"32.530815","id":"3484"},{"longitude":"-7.147226","name":"Tjornuvik, Faeroe Islands","latitude":"62.289963","id":"5724"},{"longitude":"49.400326","name":"Toamasina, Madagascar","latitude":"-18.146221","id":"9398"},{"longitude":"23.960317","name":"Tobrok, Libya","latitude":"32.079576","id":"7874"},{"longitude":"43.663123","name":"Toliary, Madagascar","latitude":"-23.354787","id":"7398"},{"longitude":"20.950020","name":"Tolmeta, Libya","latitude":"32.716731","id":"7872"},{"longitude":"-75.558583","name":"Tolu, Colombia","latitude":"9.496273","id":"5808"},{"longitude":"113.932137","name":"Tong Fuk, Hong Kong","latitude":"22.227320","id":"5855"},{"longitude":"-6.771830","name":"Torshavn, Faeroe Islands","latitude":"62.017513","id":"8681"},{"longitude":"-64.597254","name":"Tortola, Virgin Islands (U.K.)","latitude":"18.414732","id":"9589"},{"longitude":"-56.375379","name":"Totness, Suriname","latitude":"5.886567","id":"9669"},{"longitude":"121.801454","name":"Toucheng, Taiwan","latitude":"24.863576","id":"5981"},{"longitude":"137.391515","name":"Toyohashi, Japan","latitude":"34.769038","id":"5893"},{"longitude":"35.859158","name":"Trablous, Lebanon","latitude":"34.439468","id":"6046"},{"longitude":"12.513618","name":"Trapani, Italy","latitude":"38.017954","id":"5876"},{"longitude":"33.896898","name":"Tricomo, Cyprus","latitude":"35.297273","id":"10388"},{"longitude":"35.859158","name":"Tripoli, Lebanon","latitude":"34.439468","id":"8663"},{"longitude":"13.187314","name":"Tripoli, Libya","latitude":"32.877350","id":"4271"},{"longitude":"76.970240","name":"Trivendrum, India","latitude":"8.798184","id":"7706"},{"longitude":"-85.954735","name":"Trujillo, Honduras","latitude":"15.915102","id":"5850"},{"longitude":"114.258695","name":"Tseung Kwan O, Hong Kong","latitude":"22.318270","id":"5857"},{"longitude":"103.647114","name":"Tuas, Singapore","latitude":"1.338244","id":"5938"},{"longitude":"12.545541","name":"Tuborg, Denmark","latitude":"55.721959","id":"8402"},{"longitude":"-74.337931","name":"Tuckerton, New Jersey, United States","latitude":"39.603864","id":"3808"},{"longitude":"-87.463598","name":"Tulum, Mexico","latitude":"20.212558","id":"5908"},{"longitude":"144.800459","name":"Tumon Bay, Guam","latitude":"13.513550","id":"5972"},{"longitude":"114.885811","name":"Tungku, Brunei","latitude":"4.926367","id":"5970"},{"longitude":"22.259264","name":"Turku, Finland","latitude":"60.449272","id":"3126"},{"longitude":"78.145167","name":"Tuticorine, India","latitude":"8.802199","id":"7678"},{"longitude":"4.748503","name":"Tyra","latitude":"55.715635","id":"10782"},{"longitude":"-5.391813","name":"Tétouan, Morocco","latitude":"35.565908","id":"5909"},{"longitude":"2.847228","name":"Ula, Norway","latitude":"57.111111","id":"7647"},{"longitude":"13.520196","name":"Umag, Croatia","latitude":"45.433121","id":"6017"},{"longitude":"20.262973","name":"Umeå, Sweden","latitude":"63.825880","id":"6004"},{"longitude":"-84.454254","name":"Unqui, Costa Rica","latitude":"9.525887","id":"7981"},{"longitude":"21.616387","name":"Vaasa, Finland","latitude":"63.095165","id":"5052"},{"longitude":"4.564293","name":"Valdemar","latitude":"55.804076","id":"10781"},{"longitude":"-146.353323","name":"Valdez, Alaska, United States","latitude":"61.130396","id":"5764"},{"longitude":"-0.376943","name":"Valencia, Spain","latitude":"39.468342","id":"3066"},{"longitude":"3.395340","name":"Valhala, Norway","latitude":"56.278102","id":"7650"},{"longitude":"-71.620512","name":"Valparaíso, Chile","latitude":"-33.045822","id":"3331"},{"longitude":"27.912845","name":"Varna, Bulgaria","latitude":"43.208350","id":"5356"},{"longitude":"21.570009","name":"Ventspils, Latvia","latitude":"57.389484","id":"5897"},{"longitude":"-80.394263","name":"Vero Beach, Florida, United States","latitude":"27.638366","id":"3813"},{"longitude":"10.966960","name":"Vestero, Denmark","latitude":"57.272232","id":"10321"},{"longitude":"-20.267321","name":"Vestmannaeyjar, Iceland","latitude":"63.437685","id":"5858"},{"longitude":"55.445013","name":"Victoria, Seychelles","latitude":"-4.617601","id":"4362"},{"longitude":"-75.977999","name":"Virginia Beach, VA, United States","latitude":"36.852966","id":"4862"},{"longitude":"107.079236","name":"Vung Tau, Vietnam","latitude":"10.341931","id":"6013"},{"longitude":"18.816601","name":"Väddö, Sweden","latitude":"59.983377","id":"6000"},{"longitude":"140.016729","name":"Wada, Japan","latitude":"35.035866","id":"5892"},{"longitude":"-74.062871","name":"Wall Township, New Jersey, United States","latitude":"40.152879","id":"3822"},{"longitude":"-123.923862","name":"Warrenton, Oregon, United States","latitude":"46.165141","id":"6191"},{"longitude":"-80.053349","name":"West Palm Beach, FL, United States","latitude":"26.715310","id":"3824"},{"longitude":"174.623453","name":"Whenuapai, New Zealand","latitude":"-36.788842","id":"5919"},{"longitude":"-5.698444","name":"Whitesands Bay, United Kingdom","latitude":"50.078518","id":"3081"},{"longitude":"-148.684704","name":"Whittier, Alaska, United States","latitude":"60.772919","id":"6255"},{"longitude":"-68.896618","name":"Willemstad, Curaçao","latitude":"12.095286","id":"10729"},{"longitude":"-68.896618","name":"Willemstad, Curaçao","latitude":"12.095286","id":"4275"},{"longitude":"-0.601608","name":"Winterton, United Kingdom","latitude":"53.656201","id":"3269"},{"longitude":"-132.383805","name":"Wrangell, Alaska, United States","latitude":"56.470744","id":"8549"},{"longitude":"32.466588","name":"Yeroskipos, Cyprus","latitude":"34.766427","id":"5811"},{"longitude":"13.828283","name":"Ystad, Sweden","latitude":"55.431340","id":"5954"},{"longitude":"18.155554","name":"Yzerfontein, South Africa","latitude":"-33.348187","id":"9844"},{"longitude":"32.649894","name":"Zafarana, Egypt","latitude":"29.116662","id":"9486"},{"longitude":"4.527251","name":"Zandvoort, Netherlands","latitude":"52.370448","id":"3141"},{"longitude":"12.529781","name":"Zawia, Libya","latitude":"32.774654","id":"7865"},{"longitude":"3.206964","name":"Zeebrugge, Belgium","latitude":"51.330742","id":"3139"},{"longitude":"12.083361","name":"Zwara, Libya","latitude":"32.933366","id":"7864"}]
