[{"latitude":"5.323497","name":"Abidjan, Côte d'Ivoire","longitude":"-4.026252","id":"3316"},{"latitude":"24.443759","name":"Abu Dhabi, United Arab Emirates","longitude":"54.418960","id":"3858"},{"latitude":"31.071894","name":"Abu Talat, Egypt","longitude":"29.702539","id":"9485"},{"latitude":"5.558302","name":"Accra, Ghana","longitude":"-0.201065","id":"4181"},{"latitude":"12.800704","name":"Aden, Yemen","longitude":"45.033503","id":"5969"},{"latitude":"36.383558","name":"Ajigaura, Japan","longitude":"140.612324","id":"5884"},{"latitude":"25.538577","name":"Al Daayen, Qatar","longitude":"51.451930","id":"10232"},{"latitude":"16.210339","name":"Al Ghaydah, Yemen","longitude":"52.182344","id":"7679"},{"latitude":"26.241585","name":"Al Hidd, Bahrain","longitude":"50.656264","id":"10233"},{"latitude":"14.685565","name":"Al Hudaydah, Yemen","longitude":"43.008501","id":"7681"},{"latitude":"26.286157","name":"Al Khobar, Saudi Arabia","longitude":"50.214262","id":"7729"},{"latitude":"29.369937","name":"Al Safat, Kuwait","longitude":"47.976541","id":"4294"},{"latitude":"23.684634","name":"Al Seeb, Oman","longitude":"58.176135","id":"7646"},{"latitude":"29.923369","name":"Al-Faw, Iraq","longitude":"48.531780","id":"9596"},{"latitude":"25.294336","name":"Al-Kheesa, Qatar","longitude":"51.519390","id":"10682"},{"latitude":"-33.913966","name":"Alexandria, Australia","longitude":"151.196198","id":"6097"},{"latitude":"31.191856","name":"Alexandria, Egypt","longitude":"29.889861","id":"6044"},{"latitude":"36.765328","name":"Algiers, Algeria","longitude":"3.031789","id":"4176"},{"latitude":"52.634666","name":"Alkmaar, Netherlands","longitude":"4.746194","id":"3086"},{"latitude":"56.074919","name":"Alsgarde, Denmark","longitude":"12.536908","id":"10737"},{"latitude":"27.999558","name":"Alta Vista,Canary Islands, Spain","longitude":"-15.699976","id":"10726"},{"latitude":"26.229037","name":"Amway Island, Bahrain","longitude":"50.575855","id":"10683"},{"latitude":"34.692643","name":"Anatoliko, Cyprus","longitude":"32.575608","id":"10384"},{"latitude":"61.217431","name":"Anchorage, Alaska, United States","longitude":"-149.858376","id":"4067"},{"latitude":"-6.129325","name":"Ancol, Indonesia","longitude":"106.833389","id":"5860"},{"latitude":"53.395396","name":"Anglesey,United Kingdom","longitude":"-4.537221","id":"10314"},{"latitude":"57.501816","name":"Angoon, Alaska, United States","longitude":"-134.582274","id":"8553"},{"latitude":"36.902356","name":"Annaba, Algeria","longitude":"7.755488","id":"4196"},{"latitude":"-13.833706","name":"Apia, Samoa","longitude":"-171.766679","id":"5705"},{"latitude":"29.531761","name":"Aqaba, Jordan","longitude":"35.006975","id":"4363"},{"latitude":"49.225231","name":"Archirondel, Jersey","longitude":"-2.021328","id":"10377"},{"latitude":"58.461715","name":"Arendal, Norway","longitude":"8.772405","id":"6056"},{"latitude":"-18.473782","name":"Arica, Chile","longitude":"-70.306750","id":"5800"},{"latitude":"35.470741","name":"Asilah, Morocco","longitude":"-6.035744","id":"5910"},{"latitude":"37.976093","name":"Athens, Greece","longitude":"23.736254","id":"3211"},{"latitude":"-36.884410","name":"Auckland, New Zealand","longitude":"174.770419","id":"3319"},{"latitude":"34.983263","name":"Ayia Napa, Cyprus","longitude":"33.999996","id":"6029"},{"latitude":"58.833246","name":"Ayre of Caira, United Kingdom","longitude":"-2.900114","id":"8682"},{"latitude":"12.518115","name":"Baby Beach, Aruba","longitude":"-69.964030","id":"5776"},{"latitude":"35.934126","name":"Bahar ic-Caghaq, Malta","longitude":"14.458812","id":"9028"},{"latitude":"-20.473988","name":"Baie Jacotet, Mauritius","longitude":"57.485374","id":"5906"},{"latitude":"16.028941","name":"Baillif, Guadeloupe","longitude":"-61.713946","id":"8834"},{"latitude":"43.414344","name":"Balchik, Bulgaria","longitude":"28.167425","id":"9594"},{"latitude":"18.409411","name":"Ballesteros, Philippines","longitude":"121.514047","id":"8541"},{"latitude":"52.401467","name":"Ballinesker, Ireland","longitude":"-6.364862","id":"8407"},{"latitude":"35.934126","name":"Balluta Bay, Malta","longitude":"14.380009","id":"6170"},{"latitude":"52.184029","name":"Ballygrangans, Ireland","longitude":"-6.558809","id":"8406"},{"latitude":"27.187329","name":"Bandar Abbas, Iran","longitude":"56.274409","id":"8848"},{"latitude":"43.118504","name":"Bandon, Oregon, United States","longitude":"-124.408279","id":"3554"},{"latitude":"57.666852","name":"Banff, United Kingdom","longitude":"-2.523663","id":"8680"},{"latitude":"13.455928","name":"Banjul, Gambia","longitude":"-16.581371","id":"4348"},{"latitude":"42.093054","name":"Bar,Serbia","longitude":"19.100294","id":"6023"},{"latitude":"41.385327","name":"Barcelona, Spain","longitude":"2.168564","id":"3036"},{"latitude":"41.125526","name":"Bari, Italy","longitude":"16.866689","id":"3160"},{"latitude":"23.679414","name":"Barka, Oman","longitude":"58.004373","id":"8947"},{"latitude":"10.940437","name":"Barranquilla, Colombia","longitude":"-74.779783","id":"4315"},{"latitude":"55.770346","name":"Barsebäck, Sweden","longitude":"12.955420","id":"8403"},{"latitude":"17.298431","name":"Basseterre, Saint Kitts and Nevis","longitude":"-62.731215","id":"4356"},{"latitude":"1.860054","name":"Bata, Equatorial Guinea","longitude":"9.768242","id":"9434"},{"latitude":"1.134660","name":"Batam, Indonesia","longitude":"103.962529","id":"5862"},{"latitude":"13.765521","name":"Batangas, Philippines","longitude":"121.065017","id":"3218"},{"latitude":"33.892460","name":"Beirut, Lebanon","longitude":"35.485217","id":"3862"},{"latitude":"17.495491","name":"Belize City, Belize","longitude":"-88.181614","id":"5791"},{"latitude":"40.755601","name":"Bellport, New York, United States","longitude":"-72.937837","id":"5767"},{"latitude":"54.224691","name":"Belmullet, Ireland","longitude":"-9.991182","id":"10395"},{"latitude":"52.486294","name":"Beverwijk, Netherlands","longitude":"4.656950","id":"3080"},{"latitude":"43.268382","name":"Bilbao, Spain","longitude":"-2.946141","id":"3067"},{"latitude":"37.276397","name":"Bizerte, Tunisia","longitude":"9.867323","id":"5958"},{"latitude":"55.751574","name":"Blaabjerg, Denmark","longitude":"8.328997","id":"5818"},{"latitude":"53.808689","name":"Blackpool, United Kingdom","longitude":"-3.050744","id":"8408"},{"latitude":"11.991787","name":"Bluefields, Nicaragua","longitude":"-83.771474","id":"5920"},{"latitude":"26.350304","name":"Boca Raton, Florida, United States","longitude":"-80.088937","id":"3563"},{"latitude":"4.433368","name":"Bonny, Nigeria","longitude":"7.166619","id":"5922"},{"latitude":"51.293699","name":"Brean, United Kingdom","longitude":"-3.010890","id":"5736"},{"latitude":"51.246417","name":"Bredene, Belgium","longitude":"2.961920","id":"8396"},{"latitude":"68.734993","name":"Breivika, Norway","longitude":"16.553181","id":"9671"},{"latitude":"13.098953","name":"Bridgetown, Barbados","longitude":"-59.613354","id":"4202"},{"latitude":"50.822584","name":"Brighton, United Kingdom","longitude":"-0.137169","id":"3170"},{"latitude":"51.358850","name":"Broadstairs, United Kingdom","longitude":"1.439455","id":"6033"},{"latitude":"40.773169","name":"Brookhaven, New York, United States","longitude":"-72.912288","id":"4512"},{"latitude":"-33.761178","name":"Brookvale, Australia","longitude":"151.273898","id":"5781"},{"latitude":"50.828106","name":"Bude, United Kingdom","longitude":"-4.544398","id":"4554"},{"latitude":"17.949741","name":"Bull Bay, Jamaica","longitude":"-76.666652","id":"7689"},{"latitude":"55.556823","name":"Bunkeflostand, Sweden","longitude":"12.918779","id":"8401"},{"latitude":"28.969997","name":"Bushehr, Iran","longitude":"50.842783","id":"9683"},{"latitude":"-8.776624","name":"Cacuaco, Angola","longitude":"13.372327","id":"5775"},{"latitude":"39.215367","name":"Cagliari, Italy","longitude":"9.109404","id":"3162"},{"latitude":"50.952886","name":"Calais, France","longitude":"1.852847","id":"4490"},{"latitude":"10.606149","name":"Camuri, Venezuela","longitude":"-66.878292","id":"5966"},{"latitude":"21.095660","name":"Cancún, Mexico","longitude":"-86.767566","id":"3842"},{"latitude":"15.303345","name":"Canefield, Dominica","longitude":"-61.384828","id":"8835"},{"latitude":"-33.919086","name":"Cape Town, South Africa","longitude":"18.421981","id":"3921"},{"latitude":"10.386704","name":"Cartagena, Colombia","longitude":"-75.505679","id":"5693"},{"latitude":"33.586984","name":"Casablanca, Morocco","longitude":"-7.611113","id":"3256"},{"latitude":"13.994202","name":"Castries, Saint Lucia","longitude":"-61.006822","id":"4207"},{"latitude":"24.403303","name":"Cat Island, Bahamas","longitude":"-75.525907","id":"5784"},{"latitude":"37.511603","name":"Catania, Italy","longitude":"15.067457","id":"3214"},{"latitude":"24.424987","name":"Caves Point, Bahamas","longitude":"-76.574447","id":"5786"},{"latitude":"14.286227","name":"Cavite, Philippines","longitude":"120.820174","id":"5931"},{"latitude":"4.941325","name":"Cayenne, French Guiana","longitude":"-52.321060","id":"5575"},{"latitude":"50.178804","name":"Cayeux-sur-Mer, France","longitude":"1.493463","id":"6051"},{"latitude":"19.690346","name":"Cayman Brac, Cayman Islands","longitude":"-79.877673","id":"6048"},{"latitude":"25.298251","name":"Chabahar, Iran","longitude":"60.629687","id":"8849"},{"latitude":"10.686157","name":"Chaguaramas, Trinidad and Tobago","longitude":"-61.650803","id":"8838"},{"latitude":"1.389040","name":"Changi, Singapore","longitude":"103.987023","id":"5937"},{"latitude":"35.511799","name":"Chania, Greece","longitude":"24.012217","id":"5723"},{"latitude":"41.411930","name":"Charlestown, Rhode Island, United States","longitude":"-71.645859","id":"3580"},{"latitude":"13.063516","name":"Chennai, India","longitude":"80.243049","id":"4191"},{"latitude":"34.976637","name":"Chikura, Japan","longitude":"139.954690","id":"5885"},{"latitude":"31.619905","name":"Chongming, China","longitude":"121.395289","id":"5802"},{"latitude":"22.222100","name":"Chung Hom Kok, Hong Kong","longitude":"114.203081","id":"5856"},{"latitude":"42.091146","name":"Civitavecchia, Italy","longitude":"11.796857","id":"7751"},{"latitude":"60.749930","name":"Clair, United Kingdom","longitude":"-2.399937","id":"10354"},{"latitude":"23.098376","name":"Clarence Town, Bahamas","longitude":"-74.966201","id":"10360"},{"latitude":"53.410053","name":"Clonshaugh,Ireland","longitude":"-6.197919","id":"10313"},{"latitude":"9.938075","name":"Cochin, India","longitude":"76.269541","id":"4322"},{"latitude":"24.052552","name":"Cockburn Town, Bahamas","longitude":"-74.530272","id":"10364"},{"latitude":"55.130782","name":"Coleraine, United Kingdom","longitude":"-6.676211","id":"9038"},{"latitude":"6.926774","name":"Colombo, Sri Lanka","longitude":"79.872019","id":"3887"},{"latitude":"9.353724","name":"Colón, Panama","longitude":"-79.900009","id":"6093"},{"latitude":"9.513540","name":"Conakry, Guinea","longitude":"-13.703835","id":"4208"},{"latitude":"36.276545","name":"Conil, Spain","longitude":"-6.087192","id":"5944"},{"latitude":"39.619323","name":"Corfu, Greece","longitude":"19.919550","id":"6024"},{"latitude":"6.356577","name":"Cotonou, Benin","longitude":"2.439909","id":"3315"},{"latitude":"21.429245","name":"Cox’s Bazar, Bangladesh","longitude":"91.994923","id":"6299"},{"latitude":"22.629670","name":"Crooked Island, Bahamas","longitude":"-74.194980","id":"5782"},{"latitude":"24.424987","name":"Crown Haven, Bahamas","longitude":"-76.574447","id":"8355"},{"latitude":"25.407773","name":"Current, Bahamas","longitude":"-76.787668","id":"5787"},{"latitude":"16.582774","name":"Currimao, Philippines","longitude":"120.389715","id":"8536"},{"latitude":"36.529520","name":"Cádiz, Spain","longitude":"-6.292734","id":"4374"},{"latitude":"24.556694","name":"Dadeng Island, China","longitude":"118.300968","id":"10368"},{"latitude":"14.116573","name":"Daet, Philippines","longitude":"122.949979","id":"10355"},{"latitude":"14.686669","name":"Dakar, Senegal","longitude":"-17.451925","id":"4180"},{"latitude":"16.051528","name":"Danang, Vietnam","longitude":"108.214811","id":"5986"},{"latitude":"-6.823198","name":"Dar Es Salaam, Tanzania","longitude":"39.269697","id":"4182"},{"latitude":"50.351771","name":"Dartmouth, United Kingdom","longitude":"-3.578377","id":"10381"},{"latitude":"25.152590","name":"Das Island, United Arab Emirates","longitude":"52.865977","id":"6020"},{"latitude":"22.249405","name":"Deep Water Bay, Hong Kong","longitude":"114.184008","id":"5853"},{"latitude":"53.201750","name":"Deeside Clwyd,United Kingdom","longitude":"-3.027555","id":"10338"},{"latitude":"32.763612","name":"Derna, Libya","longitude":"22.639228","id":"7873"},{"latitude":"25.616979","name":"Diba, Oman","longitude":"56.258046","id":"10579"},{"latitude":"49.923019","name":"Dieppe, France","longitude":"1.077510","id":"5831"},{"latitude":"11.594657","name":"Djibouti City, Djibouti","longitude":"43.148039","id":"4177"},{"latitude":"25.294336","name":"Doha, Qatar","longitude":"51.519390","id":"3867"},{"latitude":"4.047180","name":"Douala, Cameroon","longitude":"9.706303","id":"4210"},{"latitude":"51.125552","name":"Dover, United Kingdom","longitude":"1.317585","id":"6086"},{"latitude":"55.593565","name":"Dragor, Denmark","longitude":"12.670222","id":"8400"},{"latitude":"58.922490","name":"Draupner, Norway","longitude":"2.685104","id":"7648"},{"latitude":"25.269340","name":"Dubai, United Arab Emirates","longitude":"55.308487","id":"3270"},{"latitude":"53.348014","name":"Dublin, Ireland","longitude":"-6.248262","id":"3077"},{"latitude":"42.641868","name":"Dubrovnik, Croatia","longitude":"18.106465","id":"6043"},{"latitude":"1.665304","name":"Dumai, Indonesia","longitude":"101.447640","id":"7311"},{"latitude":"51.358549","name":"Dumpton Gap, United Kingdom","longitude":"1.439354","id":"8397"},{"latitude":"22.183250","name":"Duncan Town, Bahamas","longitude":"-75.733457","id":"10361"},{"latitude":"58.615306","name":"Dunnet Bay, United Kingdom","longitude":"-3.346182","id":"5746"},{"latitude":"41.316663","name":"Durres, Albania","longitude":"19.450041","id":"6025"},{"latitude":"26.539633","name":"Eight-Mile Rock, Bahamas","longitude":"-78.802882","id":"5783"},{"latitude":"56.549146","name":"Ekofisk, Norway","longitude":"3.210026","id":"7649"},{"latitude":"36.313387","name":"El Djemila, Algeria","longitude":"5.734200","id":"5774"},{"latitude":"27.999558","name":"El Goro,Canary Islands, Spain","longitude":"-15.699976","id":"5720"},{"latitude":"28.046639","name":"El Médano,Canary Islands, Spain","longitude":"-16.538606","id":"5722"},{"latitude":"-9.480235","name":"Ela Beach, Papua New Guinea","longitude":"147.156335","id":"8350"},{"latitude":"35.062368","name":"Emi, Japan","longitude":"140.061100","id":"5894"},{"latitude":"36.427125","name":"Estepona, Spain","longitude":"-5.145865","id":"5943"},{"latitude":"22.249204","name":"Fangshan, Taiwan","longitude":"120.662165","id":"5980"},{"latitude":"57.863008","name":"Farosund, Sweden","longitude":"19.055321","id":"7412"},{"latitude":"43.982131","name":"Florence, Oregon, United States","longitude":"-124.099840","id":"8539"},{"latitude":"-27.597030","name":"Florianópolis, Brazil","longitude":"-48.549530","id":"3359"},{"latitude":"8.934107","name":"Fort Amador, Panama","longitude":"-79.546748","id":"5925"},{"latitude":"-3.718838","name":"Fortaleza, Brazil","longitude":"-38.542979","id":"3347"},{"latitude":"8.485379","name":"Freetown, Sierra Leone","longitude":"-13.238091","id":"4212"},{"latitude":"24.689807","name":"Fresh Creek, Bahamas","longitude":"-77.844590","id":"10358"},{"latitude":"25.121671","name":"Fujairah, United Arab Emirates","longitude":"56.333737","id":"5962"},{"latitude":"33.590296","name":"Fukuoka, Japan","longitude":"130.401687","id":"4059"},{"latitude":"32.647263","name":"Funchal, Portugal","longitude":"-16.905068","id":"5935"},{"latitude":"62.244086","name":"Funningsfjordur, Faeroe Islands","longitude":"-6.928132","id":"5725"},{"latitude":"26.071129","name":"Fuzhou, China","longitude":"119.303230","id":"8620"},{"latitude":"29.570811","name":"Ganaveh, Iran","longitude":"50.521144","id":"5990"},{"latitude":"55.012627","name":"Gedebak Odde, Denmark","longitude":"14.966669","id":"5994"},{"latitude":"54.576346","name":"Gedser, Denmark","longitude":"11.928966","id":"5820"},{"latitude":"23.516487","name":"George Town, Bahamas","longitude":"-75.788017","id":"10359"},{"latitude":"6.804102","name":"Georgetown, Guyana","longitude":"-58.154935","id":"3904"},{"latitude":"36.155981","name":"Gibraltar, Gibraltar","longitude":"-5.347693","id":"8948"},{"latitude":"35.299080","name":"Girne, Cyprus","longitude":"33.236354","id":"9661"},{"latitude":"41.210654","name":"Gjirin e Lalezit, Albania","longitude":"19.499231","id":"10178"},{"latitude":"50.024811","name":"Goonhilly Downs, United Kingdom","longitude":"-5.174526","id":"3292"},{"latitude":"25.196057","name":"Governors Harbor, Bahamas","longitude":"-76.240661","id":"10357"},{"latitude":"27.964623","name":"Gran Canaria,Canary Islands, Spain","longitude":"-15.396255","id":"5721"},{"latitude":"49.247918","name":"Greve de Lecq, Jersey","longitude":"-2.201422","id":"10375"},{"latitude":"63.846158","name":"Grindavik, Iceland","longitude":"-22.444860","id":"10385"},{"latitude":"53.219418","name":"Groningen, Netherlands","longitude":"6.567009","id":"3935"},{"latitude":"35.120592","name":"Grover Beach, California, United States","longitude":"-120.621440","id":"5748"},{"latitude":"24.493952","name":"Guanyin Mountain, China","longitude":"118.189037","id":"10369"},{"latitude":"24.476184","name":"Guningtou, Taiwan","longitude":"118.307092","id":"10366"},{"latitude":"32.811396","name":"Haifa, Israel","longitude":"34.998743","id":"3905"},{"latitude":"18.699027","name":"Haina, Dominican Republic","longitude":"-70.161842","id":"10120"},{"latitude":"19.282977","name":"Half Moon Bay, Cayman Islands","longitude":"-81.166789","id":"5799"},{"latitude":"44.645788","name":"Halifax, Nova Scotia, Canada","longitude":"-63.573962","id":"3640"},{"latitude":"25.668578","name":"Halul Island, Qatar","longitude":"52.420260","id":"6019"},{"latitude":"59.823260","name":"Hangö, Finland","longitude":"22.968195","id":"7694"},{"latitude":"60.301000","name":"Haradsholm, Finland","longitude":"22.302129","id":"9104"},{"latitude":"47.886272","name":"Harbour Pointe, Washington, United States","longitude":"-122.302165","id":"3641"},{"latitude":"17.949741","name":"Harbour View, Jamaica","longitude":"-76.716896","id":"9600"},{"latitude":"49.451000","name":"Havelet Bay, Guernsey","longitude":"-2.529486","id":"10376"},{"latitude":"58.128129","name":"Hawk Inlet, Alaska, United States","longitude":"-134.741789","id":"8552"},{"latitude":"26.516846","name":"Hawksbill, Bahamas","longitude":"-78.736827","id":"5785"},{"latitude":"56.043799","name":"Helsingborg, Sweden","longitude":"12.695820","id":"3268"},{"latitude":"60.171100","name":"Helsingfors, Finland","longitude":"24.932463","id":"9103"},{"latitude":"56.030448","name":"Helsingør, Denmark","longitude":"12.592121","id":"6065"},{"latitude":"60.171100","name":"Helsinki, Finland","longitude":"24.932463","id":"3064"},{"latitude":"51.222224","name":"Highbridge, United Kingdom","longitude":"-2.975002","id":"5745"},{"latitude":"55.927853","name":"Hillerød, Denmark","longitude":"12.300799","id":"5992"},{"latitude":"45.824830","name":"Hillsboro, Oregon, United States","longitude":"-123.811178","id":"3649"},{"latitude":"57.456140","name":"Hjørring, Denmark","longitude":"9.995618","id":"5821"},{"latitude":"26.010194","name":"Hollywood, Florida, United States","longitude":"-80.160211","id":"3650"},{"latitude":"53.306052","name":"Holyhead, United Kingdom","longitude":"-4.630379","id":"6035"},{"latitude":"59.646378","name":"Homer, Alaska, United States","longitude":"-151.544271","id":"8392"},{"latitude":"54.180521","name":"Hunmanby, United Kingdom","longitude":"-0.321028","id":"5747"},{"latitude":"41.884149","name":"Igneada, Turkey","longitude":"27.985324","id":"6058"},{"latitude":"52.460896","name":"Ijmuiden, Netherlands","longitude":"4.612780","id":"10414"},{"latitude":"43.171207","name":"Ishikari, Japan","longitude":"141.315432","id":"7834"},{"latitude":"18.441736","name":"Isla Verde, Puerto Rico, United States","longitude":"-66.016873","id":"5773"},{"latitude":"40.600303","name":"Island Park, New York, United States","longitude":"-73.655953","id":"9763"},{"latitude":"41.040599","name":"Istanbul, Turkey","longitude":"28.986079","id":"3221"},{"latitude":"30.331743","name":"Jacksonville, Florida, United States","longitude":"-81.655723","id":"3655"},{"latitude":"-6.171889","name":"Jakarta, Indonesia","longitude":"106.827868","id":"3012"},{"latitude":"-15.922152","name":"Jamestown, Saint Helena","longitude":"-5.704668","id":"10722"},{"latitude":"16.242965","name":"Jarry, Guadeloupe","longitude":"-61.554883","id":"8836"},{"latitude":"25.681226","name":"Jask, Iran","longitude":"57.797376","id":"6031"},{"latitude":"21.481246","name":"Jeddah, Saudi Arabia","longitude":"39.182762","id":"4361"},{"latitude":"58.299490","name":"Juneau, Alaska, United States","longitude":"-134.406848","id":"4816"},{"latitude":"21.354056","name":"Kahe Point, Hawaii, United States","longitude":"-158.130545","id":"5753"},{"latitude":"24.889376","name":"Karachi, Pakistan","longitude":"67.028539","id":"3259"},{"latitude":"1.309333","name":"Katong, Singapore","longitude":"103.904706","id":"5939"},{"latitude":"57.431044","name":"Katthammarsvik, Sweden","longitude":"18.845312","id":"10365"},{"latitude":"52.205211","name":"Katwijk, Netherlands","longitude":"4.396447","id":"3283"},{"latitude":"20.039893","name":"Kawaihae, Hawaii, United States","longitude":"-155.831387","id":"8973"},{"latitude":"-12.817090","name":"Kaweni, Mayotte","longitude":"45.165913","id":"10123"},{"latitude":"20.063885","name":"Keawaula, Hawaii, United States","longitude":"-155.838816","id":"5754"},{"latitude":"36.849352","name":"Kelibia, Tunisia","longitude":"11.089934","id":"6015"},{"latitude":"60.552871","name":"Kenai, Alaska, United States","longitude":"-151.259775","id":"8393"},{"latitude":"34.880668","name":"Keoje, Korea,Rep.","longitude":"128.620826","id":"5975"},{"latitude":"55.341895","name":"Ketchikan, Alaska, United States","longitude":"-131.647819","id":"8551"},{"latitude":"29.245759","name":"Khark Island, Iran","longitude":"50.312038","id":"10603"},{"latitude":"26.181353","name":"Khasab, Oman","longitude":"56.246802","id":"7645"},{"latitude":"52.174593","name":"Kilmore Quay, Ireland","longitude":"-6.584106","id":"5863"},{"latitude":"12.185233","name":"Kingston, Grenada","longitude":"-61.715352","id":"6077"},{"latitude":"17.992204","name":"Kingston, Jamaica","longitude":"-76.792186","id":"3272"},{"latitude":"13.187895","name":"Kingstown, Saint Vincent and the Grenadines","longitude":"-61.254677","id":"4219"},{"latitude":"33.839256","name":"Kita-kyushu, Japan","longitude":"131.032015","id":"5895"},{"latitude":"36.801769","name":"Kitaibaraki, Japan","longitude":"140.750958","id":"5703"},{"latitude":"57.794143","name":"Kodiak, Alaska, United States","longitude":"-152.395249","id":"8394"},{"latitude":"39.753842","name":"Kokkini, Greece","longitude":"19.923967","id":"7730"},{"latitude":"54.172390","name":"Kolobrzeg, Poland","longitude":"15.574912","id":"5933"},{"latitude":"60.501071","name":"Kotka, Finland","longitude":"26.883579","id":"4552"},{"latitude":"2.932888","name":"Kribi, Cameroon","longitude":"9.910389","id":"10095"},{"latitude":"58.150917","name":"Kristiansand, Norway","longitude":"7.996215","id":"3131"},{"latitude":"56.516721","name":"Kristinelund, Sweden","longitude":"13.016757","id":"10739"},{"latitude":"-0.816457","name":"Kuala Tungkal, Indonesia","longitude":"103.466719","id":"10283"},{"latitude":"3.815086","name":"Kuantan, Malaysia","longitude":"103.322563","id":"5903"},{"latitude":"57.487461","name":"Kungsbacka, Sweden","longitude":"12.076233","id":"10605"},{"latitude":"29.374053","name":"Kuwait City, Kuwait","longitude":"47.974734","id":"3871"},{"latitude":"9.189793","name":"Kwajalein, Republic of Marshall Islands","longitude":"167.424318","id":"7879"},{"latitude":"59.000892","name":"Kärdla, Estonia","longitude":"22.738008","id":"5828"},{"latitude":"59.279264","name":"Kårstø, Norway","longitude":"5.524392","id":"5923"},{"latitude":"10.603137","name":"La Guaira, Venezuela","longitude":"-66.889636","id":"8352"},{"latitude":"28.663215","name":"La Palma,Canary Islands, Spain","longitude":"-17.765232","id":"7776"},{"latitude":"6.438895","name":"Lagos, Nigeria","longitude":"3.423247","id":"3280"},{"latitude":"24.455605","name":"Lake Ci, Taiwan","longitude":"118.289825","id":"10367"},{"latitude":"49.503402","name":"Lancresse Bay,Guernsey","longitude":"-2.533451","id":"10380"},{"latitude":"63.642172","name":"Landeyjar, Iceland","longitude":"-20.142290","id":"8994"},{"latitude":"63.733123","name":"Landeyjasandur, Iceland","longitude":"-20.666760","id":"8544"},{"latitude":"48.730224","name":"Lannion, France","longitude":"-3.459920","id":"5837"},{"latitude":"22.271490","name":"Lantau Island, Hong Kong","longitude":"113.948400","id":"5852"},{"latitude":"-36.472523","name":"Las Toninas, Argentina","longitude":"-56.695512","id":"3330"},{"latitude":"14.615495","name":"Le Lamentin, Martinique","longitude":"-61.094259","id":"5905"},{"latitude":"58.550958","name":"Lena Point, Alaska, United States","longitude":"-134.747310","id":"5765"},{"latitude":"0.394308","name":"Libreville, Gabon","longitude":"9.454332","id":"4221"},{"latitude":"56.508188","name":"Liepaja, Latvia","longitude":"21.011256","id":"5310"},{"latitude":"4.014555","name":"Limbe, Cameroon","longitude":"9.208485","id":"9846"},{"latitude":"38.725681","name":"Lisbon, Portugal","longitude":"-9.150142","id":"3146"},{"latitude":"59.799870","name":"Logi, Russia","longitude":"28.499906","id":"9102"},{"latitude":"6.125989","name":"Lome, Togo","longitude":"1.227840","id":"3317"},{"latitude":"78.218528","name":"Longyearbyen,Svalbard, Norway","longitude":"15.648797","id":"9672"},{"latitude":"34.053380","name":"Los Angeles, California, United States","longitude":"-118.245336","id":"3678"},{"latitude":"52.471336","name":"Lowestoft, United Kingdom","longitude":"1.729221","id":"3084"},{"latitude":"-8.812863","name":"Luanda, Angola","longitude":"13.234998","id":"4190"},{"latitude":"-12.278515","name":"Lurin, Peru","longitude":"-76.874302","id":"5930"},{"latitude":"57.244826","name":"Lyngsa, Denmark","longitude":"10.514617","id":"10320"},{"latitude":"42.463681","name":"Lynn, Massachusetts, United States","longitude":"-70.950280","id":"3683"},{"latitude":"47.824032","name":"Lynnwood, Washington, United States","longitude":"-122.315817","id":"5770"},{"latitude":"55.458645","name":"Maade, Denmark","longitude":"8.505678","id":"3083"},{"latitude":"-5.233674","name":"Madang, Papua New Guinea","longitude":"145.784851","id":"8558"},{"latitude":"18.372971","name":"Magen's Bay, VI, United States","longitude":"-64.937114","id":"5758"},{"latitude":"10.599423","name":"Maiquetia, Venezuela","longitude":"-66.960358","id":"5968"},{"latitude":"7.116204","name":"Majuro, Republic of Marshall Islands","longitude":"171.185608","id":"9060"},{"latitude":"21.460265","name":"Makaha, Hawaii, United States","longitude":"-158.206036","id":"5760"},{"latitude":"3.749835","name":"Malabo, Equatorial Guinea","longitude":"8.783347","id":"4224"},{"latitude":"-34.900367","name":"Maldonado, Uruguay","longitude":"-54.950189","id":"5963"},{"latitude":"4.166440","name":"Male, Maldives","longitude":"73.499971","id":"4251"},{"latitude":"26.229037","name":"Manama, Bahrain","longitude":"50.575855","id":"4188"},{"latitude":"40.123365","name":"Manasquan, New Jersey, United States","longitude":"-74.047060","id":"3686"},{"latitude":"38.969219","name":"Manchester, California, United States","longitude":"-123.687000","id":"3687"},{"latitude":"-4.154015","name":"Mancora, Peru","longitude":"-81.053804","id":"8484"},{"latitude":"43.817196","name":"Mangalia, Romania","longitude":"28.582725","id":"6059"},{"latitude":"-25.968556","name":"Maputo, Mozambique","longitude":"32.580627","id":"4252"},{"latitude":"9.437346","name":"Maria Chiquita, Panama","longitude":"-79.753544","id":"5928"},{"latitude":"60.113880","name":"Mariehamn, Finland","longitude":"19.937820","id":"5830"},{"latitude":"36.855275","name":"Marmaris, Turkey","longitude":"28.253658","id":"5959"},{"latitude":"43.293177","name":"Marseille, France","longitude":"5.372607","id":"3210"},{"latitude":"35.037472","name":"Maruyama, Japan","longitude":"139.816960","id":"5887"},{"latitude":"20.950501","name":"Matthew Town, Bahamas","longitude":"-73.683058","id":"9581"},{"latitude":"22.401591","name":"Mayaguana, Bahamas","longitude":"-73.064123","id":"10362"},{"latitude":"60.003956","name":"Maywick, United Kingdom","longitude":"-1.323791","id":"8684"},{"latitude":"37.650037","name":"Mazara del Vallo, Italy","longitude":"12.591318","id":"3215"},{"latitude":"23.199465","name":"Mazatlán, Mexico","longitude":"-106.421885","id":"3470"},{"latitude":"3.751742","name":"Medan, Indonesia","longitude":"98.676063","id":"5861"},{"latitude":"2.273146","name":"Melaka, Malaysia","longitude":"102.220919","id":"6300"},{"latitude":"-33.727247","name":"Melkbosstrand, South Africa","longitude":"18.445772","id":"5941"},{"latitude":"59.400832","name":"Meremöisa, Estonia","longitude":"24.276636","id":"5999"},{"latitude":"36.799962","name":"Mersin, Turkey","longitude":"34.633336","id":"9080"},{"latitude":"2.295532","name":"Mersing, Malaysia","longitude":"103.849895","id":"5902"},{"latitude":"45.495863","name":"Mestre, Italy","longitude":"12.244080","id":"6016"},{"latitude":"25.788640","name":"Miami, Florida, United States","longitude":"-80.226416","id":"3696"},{"latitude":"54.259927","name":"Mielno,Poland","longitude":"16.062290","id":"5993"},{"latitude":"48.864340","name":"Milton, Newfoundland and Labrador, Canada","longitude":"-53.965144","id":"8542"},{"latitude":"18.453381","name":"Miramar, Puerto Rico, United States","longitude":"-66.082878","id":"5762"},{"latitude":"35.144082","name":"Miura, Japan","longitude":"139.620703","id":"5889"},{"latitude":"-4.053227","name":"Mombasa, Kenya","longitude":"39.672850","id":"5896"},{"latitude":"43.732570","name":"Monaco, Monaco","longitude":"7.417686","id":"3255"},{"latitude":"6.300160","name":"Monrovia, Liberia","longitude":"-10.797187","id":"4178"},{"latitude":"43.739697","name":"Monte Carlo, Monaco","longitude":"7.427223","id":"6028"},{"latitude":"18.349481","name":"Morant Point, Jamaica","longitude":"-77.816733","id":"8685"},{"latitude":"-11.700689","name":"Moroni, Comoros","longitude":"43.243406","id":"4227"},{"latitude":"35.366740","name":"Morro Bay, California, United States","longitude":"-120.847209","id":"5751"},{"latitude":"35.898690","name":"Msida, Malta","longitude":"14.488125","id":"4058"},{"latitude":"6.832712","name":"Mt. Lavinia, Sri Lanka","longitude":"79.866799","id":"5949"},{"latitude":"-28.950645","name":"Mtunzini, South Africa","longitude":"31.757858","id":"5942"},{"latitude":"-5.933370","name":"Muanda, Congo,Dem. Rep.","longitude":"12.349888","id":"9426"},{"latitude":"19.075779","name":"Mumbai, India","longitude":"72.875866","id":"3212"},{"latitude":"54.266352","name":"Murdoch, Norway","longitude":"2.333449","id":"7651"},{"latitude":"23.615167","name":"Muscat, Oman","longitude":"58.591033","id":"4225"},{"latitude":"33.011266","name":"Nahariyya, Israel","longitude":"35.094713","id":"5866"},{"latitude":"42.812325","name":"Nakhodka, Russia","longitude":"132.874012","id":"5362"},{"latitude":"30.306345","name":"Nanhui, China","longitude":"121.191404","id":"5804"},{"latitude":"18.414732","name":"Nanny Cay, Virgin Islands (U.K.)","longitude":"-64.597254","id":"10121"},{"latitude":"37.169686","name":"Naoetsu, Japan","longitude":"138.242092","id":"5529"},{"latitude":"57.426828","name":"Narrow Cape, Alaska, United States","longitude":"-152.329145","id":"8395"},{"latitude":"25.067060","name":"Nassau, Bahamas","longitude":"-77.340247","id":"4230"},{"latitude":"14.317347","name":"Nasugbu, Philippines","longitude":"120.695794","id":"9603"},{"latitude":"45.643733","name":"Nedonna Beach, Oregon, United States","longitude":"-123.940125","id":"3711"},{"latitude":"13.078775","name":"Needham’s Point, Barbados","longitude":"-59.612751","id":"6183"},{"latitude":"46.684442","name":"Nevelsk, Russia","longitude":"141.859227","id":"8366"},{"latitude":"46.252879","name":"New Victoria, NS, Canada","longitude":"-60.129592","id":"9374"},{"latitude":"60.689798","name":"Nikiski, Alaska, United States","longitude":"-151.291698","id":"8540"},{"latitude":"35.299381","name":"Ninomiya, Japan","longitude":"139.255396","id":"5890"},{"latitude":"53.595467","name":"Norden, Germany","longitude":"7.201855","id":"5840"},{"latitude":"59.759615","name":"Norrtalge, Sweden","longitude":"18.701357","id":"6171"},{"latitude":"25.932896","name":"North Miami Beach, Florida, United States","longitude":"-80.162369","id":"5772"},{"latitude":"40.818744","name":"Northport, New York, United States","longitude":"-72.805276","id":"9762"},{"latitude":"18.083857","name":"Nouakchott, Mauritania","longitude":"-15.978298","id":"4192"},{"latitude":"-22.303336","name":"Noumea, New Caledonia","longitude":"166.439122","id":"5704"},{"latitude":"44.723588","name":"Novorossiysk, Russia","longitude":"37.772831","id":"5117"},{"latitude":"-21.133329","name":"Nuku'alofa, Tonga","longitude":"-175.200006","id":"10315"},{"latitude":"64.181149","name":"Nuuk, Greenland","longitude":"-51.729983","id":"8488"},{"latitude":"-4.050416","name":"Nyali, Kenya","longitude":"39.700055","id":"10122"},{"latitude":"58.902914","name":"Nynashamn, Sweden","longitude":"17.946549","id":"5951"},{"latitude":"18.398570","name":"Ocho Rios, Jamaica","longitude":"-77.103234","id":"7688"},{"latitude":"46.488989","name":"Odessa, Ukraine","longitude":"30.677495","id":"5355"},{"latitude":"26.212373","name":"Okinawa, Japan","longitude":"127.680604","id":"5886"},{"latitude":"40.922544","name":"Olbia, Italy","longitude":"9.486858","id":"8592"},{"latitude":"35.701630","name":"Oran, Algeria","longitude":"-0.641964","id":"8359"},{"latitude":"12.524640","name":"Oranjestad, Aruba","longitude":"-70.026470","id":"4233"},{"latitude":"51.231159","name":"Ostend, Belgium","longitude":"2.912630","id":"5789"},{"latitude":"55.858285","name":"Osterby, Denmark","longitude":"10.600950","id":"10322"},{"latitude":"40.148060","name":"Otranto, Italy","longitude":"18.485726","id":"6027"},{"latitude":"-33.737386","name":"Oxford Falls, Australia","longitude":"151.244986","id":"5778"},{"latitude":"51.557817","name":"Oxwich Bay, United Kingdom","longitude":"-4.169604","id":"3145"},{"latitude":"25.149980","name":"Pa Li, Taiwan","longitude":"121.383243","id":"5983"},{"latitude":"-33.882144","name":"Paddington, Australia","longitude":"151.228623","id":"5779"},{"latitude":"32.280551","name":"Paget, Bermuda","longitude":"-64.788692","id":"9069"},{"latitude":"-14.276512","name":"Pago Pago, American Samoa","longitude":"-170.695703","id":"9070"},{"latitude":"38.121453","name":"Palermo, Italy","longitude":"13.358373","id":"3177"},{"latitude":"39.552366","name":"Palma, Spain","longitude":"2.605246","id":"4723"},{"latitude":"14.923080","name":"Palmarejo, Cape Verde","longitude":"-23.521257","id":"10725"},{"latitude":"8.964424","name":"Panama City, Panama","longitude":"-79.536709","id":"3334"},{"latitude":"-17.512379","name":"Papenoo, French Polynesia","longitude":"-149.441068","id":"8974"},{"latitude":"34.916405","name":"Paphos, Cyprus","longitude":"32.491986","id":"9246"},{"latitude":"60.306622","name":"Pargas, Finland","longitude":"22.301025","id":"6083"},{"latitude":"55.030897","name":"Pedersker, Denmark","longitude":"14.992167","id":"5822"},{"latitude":"49.509526","name":"Pembroke, United Kingdom","longitude":"-2.537617","id":"10373"},{"latitude":"5.353613","name":"Penang, Malaysia","longitude":"100.362961","id":"3307"},{"latitude":"47.811283","name":"Penmarch, France","longitude":"-4.338706","id":"3119"},{"latitude":"44.434072","name":"Pennant Point,NS,Canada","longitude":"-63.645638","id":"3734"},{"latitude":"34.828466","name":"Pentaskhinos, Cyprus","longitude":"33.603568","id":"5812"},{"latitude":"-31.953413","name":"Perth, Australia","longitude":"115.857254","id":"3239"},{"latitude":"56.807642","name":"Petersburg, Alaska, United States","longitude":"-132.970063","id":"8550"},{"latitude":"50.819071","name":"Pevensey Bay, United Kingdom","longitude":"0.366722","id":"6050"},{"latitude":"13.464662","name":"Piti, Guam","longitude":"144.694751","id":"5973"},{"latitude":"48.534771","name":"Plerin, France","longitude":"-2.768055","id":"5836"},{"latitude":"16.706551","name":"Plymouth, Montserrat","longitude":"-62.215729","id":"4355"},{"latitude":"7.786486","name":"Pohnpei, Federated States of Micronesia","longitude":"159.070234","id":"9062"},{"latitude":"-4.779123","name":"Point Noire, Congo,Rep.","longitude":"11.863614","id":"5971"},{"latitude":"16.241058","name":"Pointe-a-Pitre, Guadeloupe","longitude":"-61.533099","id":"4906"},{"latitude":"37.739281","name":"Ponta Delgada, Portugal","longitude":"-25.668781","id":"5945"},{"latitude":"23.652109","name":"Port Nelson, Bahamas","longitude":"-74.840567","id":"10363"},{"latitude":"10.649817","name":"Port of Spain, Trinidad and Tobago","longitude":"-61.516686","id":"4236"},{"latitude":"19.615558","name":"Port Sudan, Sudan","longitude":"37.219700","id":"5950"},{"latitude":"-17.730419","name":"Port Vila, Vanuatu","longitude":"168.322880","id":"9086"},{"latitude":"18.542725","name":"Port-au-Prince, Haiti","longitude":"-72.343146","id":"3878"},{"latitude":"50.043081","name":"Porthcurno, United Kingdom","longitude":"-5.654525","id":"3082"},{"latitude":"42.150776","name":"Poti, Georgia","longitude":"41.667635","id":"5530"},{"latitude":"51.119830","name":"Pottington, United Kingdom","longitude":"-4.227829","id":"5744"},{"latitude":"36.733707","name":"Pozzallo, Italy","longitude":"14.853834","id":"8972"},{"latitude":"14.923080","name":"Praia, Cape Verde","longitude":"-23.521257","id":"4257"},{"latitude":"21.851071","name":"Providenciales, Turks and Caicos Islands","longitude":"-72.120237","id":"4258"},{"latitude":"15.727178","name":"Puerto Barrios, Guatemala","longitude":"-88.597215","id":"5848"},{"latitude":"14.021607","name":"Puerto Cabezas, Nicaragua","longitude":"-83.393919","id":"5921"},{"latitude":"15.844831","name":"Puerto Cortes, Honduras","longitude":"-87.946056","id":"5851"},{"latitude":"15.261283","name":"Puerto Lempira, Honduras","longitude":"-83.776794","id":"5692"},{"latitude":"9.988570","name":"Puerto Limon, Costa Rica","longitude":"-83.037697","id":"5810"},{"latitude":"19.799366","name":"Puerto Plata, Dominican Republic","longitude":"-70.691232","id":"5823"},{"latitude":"13.934572","name":"Puerto San Jose, Guatemala","longitude":"-90.822237","id":"5849"},{"latitude":"10.722397","name":"Puerto Viejo, Venezuela","longitude":"-62.473924","id":"5967"},{"latitude":"18.621328","name":"Punta Cana, Dominican Republic","longitude":"-68.438252","id":"5694"},{"latitude":"-2.272968","name":"Punta Carnero, Ecuador","longitude":"-80.914417","id":"5824"},{"latitude":"11.708596","name":"Punto Fijo, Venezuela","longitude":"-70.204356","id":"5965"},{"latitude":"35.170083","name":"Pusan, Korea,Rep.","longitude":"128.999384","id":"4183"},{"latitude":"54.496037","name":"Puttgarden, Germany","longitude":"11.212506","id":"5839"},{"latitude":"16.282216","name":"Pyapon, Myanmar","longitude":"95.682028","id":"5911"},{"latitude":"23.615167","name":"Qalhat, Oman","longitude":"58.591033","id":"10684"},{"latitude":"60.718910","name":"Qaqortoq, Greenland","longitude":"-46.035394","id":"8543"},{"latitude":"36.087115","name":"Qingdao, China","longitude":"120.342634","id":"6012"},{"latitude":"54.613891","name":"Redcar, United Kingdom","longitude":"-1.068206","id":"3085"},{"latitude":"33.844375","name":"Redondo Beach, California, United States","longitude":"-118.387985","id":"4992"},{"latitude":"1.677150","name":"Rengit, Malaysia","longitude":"103.147690","id":"8970"},{"latitude":"54.243363","name":"Ribnitz, Germany","longitude":"12.431502","id":"5842"},{"latitude":"24.424987","name":"Riding Point, Bahamas","longitude":"-76.574447","id":"8354"},{"latitude":"-22.903448","name":"Rio de Janeiro, Brazil","longitude":"-43.209557","id":"3242"},{"latitude":"11.482927","name":"Riohacha, Colombia","longitude":"-72.952744","id":"5807"},{"latitude":"54.663080","name":"Rodbyhavn, Denmark","longitude":"11.358669","id":"5814"},{"latitude":"14.035661","name":"Rodney Bay, Saint Lucia","longitude":"-60.988552","id":"8837"},{"latitude":"47.617637","name":"Rose Blanche, NL, Canada","longitude":"-58.686583","id":"9375"},{"latitude":"15.251746","name":"Roseau, Dominica","longitude":"-61.370724","id":"4260"},{"latitude":"36.616957","name":"Rota, Spain","longitude":"-6.358186","id":"10400"},{"latitude":"57.330858","name":"Saeby, Denmark","longitude":"10.516625","id":"10606"},{"latitude":"33.450157","name":"Saida, Lebanon","longitude":"35.386236","id":"6047"},{"latitude":"17.900049","name":"Saint Barthelemy, Guadeloupe","longitude":"-62.833409","id":"7876"},{"latitude":"18.031054","name":"Saint Maarten, Netherlands Antilles","longitude":"-63.073735","id":"3188"},{"latitude":"18.092792","name":"Saint Martin, Guadeloupe","longitude":"-63.050094","id":"7875"},{"latitude":"-21.000216","name":"Saint Paul, Réunion","longitude":"55.279174","id":"5978"},{"latitude":"-20.897319","name":"Sainte Marie, Réunion","longitude":"55.549917","id":"9399"},{"latitude":"49.423294","name":"Saints Bay, United Kingdom","longitude":"-2.558046","id":"10374"},{"latitude":"1.258838","name":"Sakra Island, Singapore","longitude":"103.704234","id":"10307"},{"latitude":"-12.969979","name":"Salvador, Brazil","longitude":"-38.504631","id":"3342"},{"latitude":"36.082297","name":"Samandag, Turkey","longitude":"35.999298","id":"10382"},{"latitude":"18.465829","name":"San Juan, Puerto Rico, United States","longitude":"-66.106669","id":"4262"},{"latitude":"35.285025","name":"San Luis Obispo, California, United States","longitude":"-120.662699","id":"3772"},{"latitude":"43.320783","name":"San Sebastián, Spain","longitude":"-1.984436","id":"4496"},{"latitude":"59.996026","name":"Sandwick, United Kingdom","longitude":"-1.238663","id":"8683"},{"latitude":"26.025151","name":"Sandy Point, Bahamas","longitude":"-77.399525","id":"5788"},{"latitude":"53.331450","name":"Sandymount, Ireland","longitude":"-6.215436","id":"5865"},{"latitude":"-8.812863","name":"Sangano, Angola","longitude":"13.234998","id":"10727"},{"latitude":"0.859600","name":"Santana, Sao Tome and Principe","longitude":"6.532877","id":"10094"},{"latitude":"18.499960","name":"Santo Domingo, Dominican Republic","longitude":"-69.983304","id":"4242"},{"latitude":"-23.961926","name":"Santos, Brazil","longitude":"-46.328071","id":"3411"},{"latitude":"6.613166","name":"Satun, Thailand","longitude":"100.066118","id":"5956"},{"latitude":"44.305577","name":"Savona, Italy","longitude":"8.483793","id":"5880"},{"latitude":"60.333124","name":"Schiehallion, United Kingdom","longitude":"-4.333436","id":"10353"},{"latitude":"38.642259","name":"Seixal, Portugal","longitude":"-9.107377","id":"9058"},{"latitude":"50.076109","name":"Sennen Cove, United Kingdom","longitude":"-5.698745","id":"5742"},{"latitude":"39.354604","name":"Ses Covetes, Spain","longitude":"2.971005","id":"5948"},{"latitude":"38.442690","name":"Sesimbra, Portugal","longitude":"-9.102760","id":"5934"},{"latitude":"60.112173","name":"Seward, Alaska, United States","longitude":"-149.443126","id":"5755"},{"latitude":"65.251372","name":"Seydisfjordur, Iceland","longitude":"-14.018046","id":"5859"},{"latitude":"31.247571","name":"Shanghai, China","longitude":"121.472487","id":"3246"},{"latitude":"23.354563","name":"Shantou, China","longitude":"116.675506","id":"5803"},{"latitude":"34.336772","name":"Shima, Japan","longitude":"136.874423","id":"5883"},{"latitude":"36.576300","name":"Shindu-Ri, Korea,Rep.","longitude":"126.391638","id":"5977"},{"latitude":"40.800273","name":"Shirley, New York, United States","longitude":"-72.872234","id":"3783"},{"latitude":"19.963699","name":"Siboney, Cuba","longitude":"-75.712376","id":"8351"},{"latitude":"1.293672","name":"Singapore, Singapore","longitude":"103.853007","id":"3029"},{"latitude":"57.052887","name":"Sitka, Alaska, United States","longitude":"-135.334372","id":"8554"},{"latitude":"52.207118","name":"Sizewell, United Kingdom","longitude":"1.620301","id":"8398"},{"latitude":"56.683163","name":"Skalvik, Sweden","longitude":"12.683272","id":"10323"},{"latitude":"50.063560","name":"Skewjack, United Kingdom","longitude":"-5.675054","id":"5741"},{"latitude":"43.615519","name":"Sochi, Russia","longitude":"39.725855","id":"5092"},{"latitude":"7.078459","name":"Songkhla, Thailand","longitude":"100.596963","id":"4265"},{"latitude":"29.072491","name":"Soroosh Platform, Iran","longitude":"49.478025","id":"10604"},{"latitude":"53.647969","name":"Southport, United Kingdom","longitude":"-3.006373","id":"3324"},{"latitude":"26.378011","name":"Spanish River Park, Florida, United States","longitude":"-80.067705","id":"8357"},{"latitude":"20.023128","name":"Spencer Beach, Hawaii, United States","longitude":"-155.822051","id":"5752"},{"latitude":"13.174444","name":"Sri Racha, Thailand","longitude":"100.930548","id":"6014"},{"latitude":"17.771855","name":"St. Croix, Virgin Islands, United States","longitude":"-64.819410","id":"5750"},{"latitude":"32.312172","name":"St. David’s, Bermuda","longitude":"-64.769518","id":"5793"},{"latitude":"12.187943","name":"St. George’s, Grenada","longitude":"-61.711637","id":"4244"},{"latitude":"46.720180","name":"St. Hilaire, France","longitude":"-1.945887","id":"5834"},{"latitude":"17.051480","name":"St. John’s, Antigua and Barbuda","longitude":"-61.857951","id":"4239"},{"latitude":"49.215694","name":"St. Ouens Bay, Jersey","longitude":"-2.225916","id":"10379"},{"latitude":"35.950389","name":"St. Paul's Bay, Malta","longitude":"14.415646","id":"8561"},{"latitude":"18.324484","name":"St. Thomas, Virgin Islands (U.S.)","longitude":"-64.904438","id":"4359"},{"latitude":"49.860478","name":"St. Valéry, France","longitude":"0.708439","id":"5331"},{"latitude":"59.822758","name":"Stavsnas, Sweden","longitude":"18.764601","id":"5952"},{"latitude":"59.332168","name":"Stockholm, Sweden","longitude":"18.062897","id":"3063"},{"latitude":"29.972258","name":"Suez, Egypt","longitude":"32.530133","id":"5825"},{"latitude":"-0.067070","name":"Sungai Kakap, Indonesia","longitude":"109.183242","id":"9094"},{"latitude":"49.283254","name":"Surville, France","longitude":"-1.649997","id":"10378"},{"latitude":"-18.123834","name":"Suva, Fiji","longitude":"178.437446","id":"4268"},{"latitude":"56.028340","name":"Sventoji, Lithuania","longitude":"21.082430","id":"5311"},{"latitude":"-22.678280","name":"Swakopmund, Namibia","longitude":"14.528079","id":"9845"},{"latitude":"-33.869897","name":"Sydney, Australia","longitude":"151.207040","id":"3030"},{"latitude":"54.898487","name":"Sylt, Germany","longitude":"8.383407","id":"3142"},{"latitude":"22.156146","name":"Taipa, China","longitude":"113.561007","id":"5900"},{"latitude":"-36.787938","name":"Takapuna, New Zealand","longitude":"174.767909","id":"5918"},{"latitude":"59.436169","name":"Tallinn, Estonia","longitude":"24.752369","id":"3089"},{"latitude":"1.327202","name":"Tanah Merah, Singapore","longitude":"103.946567","id":"9135"},{"latitude":"13.549087","name":"Tanguisson Point, Guam","longitude":"144.809393","id":"3251"},{"latitude":"1.173208","name":"Tanjung Bemban, Indonesia","longitude":"104.133186","id":"9096"},{"latitude":"-5.981455","name":"Tanjung Pakis, Indonesia","longitude":"107.120897","id":"9095"},{"latitude":"25.181300","name":"Tanshui, Taiwan","longitude":"121.462649","id":"5982"},{"latitude":"34.891710","name":"Tartous, Syria","longitude":"35.897807","id":"6030"},{"latitude":"32.044642","name":"Tel Aviv, Israel","longitude":"34.769661","id":"3213"},{"latitude":"4.703710","name":"Telisai, Brunei","longitude":"114.570597","id":"10309"},{"latitude":"28.292788","name":"Tenerife,Canary Islands, Spain","longitude":"-16.522745","id":"7713"},{"latitude":"-20.077862","name":"Terre Rouge, Mauritius","longitude":"57.510069","id":"9400"},{"latitude":"18.217372","name":"The Valley, Anguilla","longitude":"-63.057221","id":"4195"},{"latitude":"56.959126","name":"Thisted, Denmark","longitude":"8.703540","id":"6054"},{"latitude":"52.180817","name":"Thorpeness, United Kingdom","longitude":"1.613074","id":"8399"},{"latitude":"32.530815","name":"Tijuana, Mexico","longitude":"-117.038185","id":"3484"},{"latitude":"-18.146221","name":"Toamasina, Madagascar","longitude":"49.400326","id":"9398"},{"latitude":"-23.354787","name":"Toliary, Madagascar","longitude":"43.663123","id":"7398"},{"latitude":"9.496273","name":"Tolu, Colombia","longitude":"-75.558583","id":"5808"},{"latitude":"22.227320","name":"Tong Fuk, Hong Kong","longitude":"113.932137","id":"5855"},{"latitude":"62.017513","name":"Torshavn, Faeroe Islands","longitude":"-6.771830","id":"8681"},{"latitude":"18.414732","name":"Tortola, Virgin Islands (U.K.)","longitude":"-64.597254","id":"9589"},{"latitude":"5.886567","name":"Totness, Suriname","longitude":"-56.375379","id":"9669"},{"latitude":"24.863576","name":"Toucheng, Taiwan","longitude":"121.801454","id":"5981"},{"latitude":"34.769038","name":"Toyohashi, Japan","longitude":"137.391515","id":"5893"},{"latitude":"34.439468","name":"Trablous, Lebanon","longitude":"35.859158","id":"6046"},{"latitude":"38.017954","name":"Trapani, Italy","longitude":"12.513618","id":"5876"},{"latitude":"35.297273","name":"Tricomo, Cyprus","longitude":"33.896898","id":"10388"},{"latitude":"34.439468","name":"Tripoli, Lebanon","longitude":"35.859158","id":"8663"},{"latitude":"32.877350","name":"Tripoli, Libya","longitude":"13.187314","id":"4271"},{"latitude":"8.798184","name":"Trivendrum, India","longitude":"76.970240","id":"7706"},{"latitude":"15.915102","name":"Trujillo, Honduras","longitude":"-85.954735","id":"5850"},{"latitude":"22.318270","name":"Tseung Kwan O, Hong Kong","longitude":"114.258695","id":"5857"},{"latitude":"1.338244","name":"Tuas, Singapore","longitude":"103.647114","id":"5938"},{"latitude":"55.721959","name":"Tuborg, Denmark","longitude":"12.545541","id":"8402"},{"latitude":"39.603864","name":"Tuckerton, New Jersey, United States","longitude":"-74.337931","id":"3808"},{"latitude":"20.212558","name":"Tulum, Mexico","longitude":"-87.463598","id":"5908"},{"latitude":"13.513550","name":"Tumon Bay, Guam","longitude":"144.800459","id":"5972"},{"latitude":"4.926367","name":"Tungku, Brunei","longitude":"114.885811","id":"5970"},{"latitude":"60.449272","name":"Turku, Finland","longitude":"22.259264","id":"3126"},{"latitude":"8.802199","name":"Tuticorine, India","longitude":"78.145167","id":"7678"},{"latitude":"35.565908","name":"Tétouan, Morocco","longitude":"-5.391813","id":"5909"},{"latitude":"57.111111","name":"Ula, Norway","longitude":"2.847228","id":"7647"},{"latitude":"45.433121","name":"Umag, Croatia","longitude":"13.520196","id":"6017"},{"latitude":"63.825880","name":"Umeå, Sweden","longitude":"20.262973","id":"6004"},{"latitude":"9.525887","name":"Unqui, Costa Rica","longitude":"-84.454254","id":"7981"},{"latitude":"63.095165","name":"Vaasa, Finland","longitude":"21.616387","id":"5052"},{"latitude":"61.130396","name":"Valdez, Alaska, United States","longitude":"-146.353323","id":"5764"},{"latitude":"39.468342","name":"Valencia, Spain","longitude":"-0.376943","id":"3066"},{"latitude":"56.278102","name":"Valhala, Norway","longitude":"3.395340","id":"7650"},{"latitude":"-33.045822","name":"Valparaíso, Chile","longitude":"-71.620512","id":"3331"},{"latitude":"43.208350","name":"Varna, Bulgaria","longitude":"27.912845","id":"5356"},{"latitude":"57.389484","name":"Ventspils, Latvia","longitude":"21.570009","id":"5897"},{"latitude":"27.638366","name":"Vero Beach, Florida, United States","longitude":"-80.394263","id":"3813"},{"latitude":"57.272232","name":"Vestero, Denmark","longitude":"10.966960","id":"10321"},{"latitude":"-4.617601","name":"Victoria, Seychelles","longitude":"55.445013","id":"4362"},{"latitude":"36.852966","name":"Virginia Beach, VA, United States","longitude":"-75.977999","id":"4862"},{"latitude":"10.341931","name":"Vung Tau, Vietnam","longitude":"107.079236","id":"6013"},{"latitude":"59.983377","name":"Väddö, Sweden","longitude":"18.816601","id":"6000"},{"latitude":"35.035866","name":"Wada, Japan","longitude":"140.016729","id":"5892"},{"latitude":"40.152879","name":"Wall Township, New Jersey, United States","longitude":"-74.062871","id":"3822"},{"latitude":"46.165141","name":"Warrenton, Oregon, United States","longitude":"-123.923862","id":"6191"},{"latitude":"26.715310","name":"West Palm Beach, FL, United States","longitude":"-80.053349","id":"3824"},{"latitude":"-36.788842","name":"Whenuapai, New Zealand","longitude":"174.623453","id":"5919"},{"latitude":"50.078518","name":"Whitesands Bay, United Kingdom","longitude":"-5.698444","id":"3081"},{"latitude":"60.772919","name":"Whittier, Alaska, United States","longitude":"-148.684704","id":"6255"},{"latitude":"12.095286","name":"Willemstad, Curaçao","longitude":"-68.896618","id":"10729"},{"latitude":"12.095286","name":"Willemstad, Curaçao","longitude":"-68.896618","id":"4275"},{"latitude":"53.589845","name":"Woodland Meath,Ireland","longitude":"-6.137134","id":"10337"},{"latitude":"56.470744","name":"Wrangell, Alaska, United States","longitude":"-132.383805","id":"8549"},{"latitude":"34.766427","name":"Yeroskipos, Cyprus","longitude":"32.466588","id":"5811"},{"latitude":"55.431340","name":"Ystad, Sweden","longitude":"13.828283","id":"5954"},{"latitude":"-33.348187","name":"Yzerfontein, South Africa","longitude":"18.155554","id":"9844"},{"latitude":"29.116662","name":"Zafarana, Egypt","longitude":"32.649894","id":"9486"},{"latitude":"52.370448","name":"Zandvoort, Netherlands","longitude":"4.527251","id":"3141"},{"latitude":"51.330742","name":"Zeebrugge, Belgium","longitude":"3.206964","id":"3139"}]
